facility_id,facility_name,facility_address,facility_city,facility_state,facility_zip,facility_latitude,facility_longitude,facility_type,facility_security_level,facility_capacity,facility_status,facility_data_source,facility_data_source_date,facility_data_edit_date,monitoring_site_name,monitoring_site_state,monitoring_site_county,monitoring_site_latitude,monitoring_site_longitude,peak_pm25_aqi,mean_pm25_aqi
10003100,WASHINGTON COUNTY CORRECTIONAL FACILITY,100 W CHERRY AVE,WASHINGTON,PA,15301,40.169477440802915,-80.24676408018185,COUNTY,NOT AVAILABLE,407.0,OPEN,"http://www.cor.pa.gov/Facilities/CountyPrisons/Pages/Inspection-Schedule,-Statistics-And-General-Info.aspx, http://www.cor.pa.gov/Facilities/CountyPrisons/Pages/County-Prison-Contact-Info.aspx",2022-01-07 15:27:25+00:00,2022-01-07 15:27:25+00:00,Charleroi,PA,WASHINGTON,40.1469,-79.9033,155,103.75
10003120,GREENE COUNTY PRISON,855 ROLLING MEADOWS RD,WAYNESBURG,PA,15370,39.889219046980934,-80.1288535573809,COUNTY,NOT AVAILABLE,196.0,OPEN,"http://www.co.greene.pa.us/secured/gc2/depts/lo/prison/prison.htm, http://www.cor.pa.gov/Facilities/CountyPrisons/Pages/County-Prison-Contact-Info.aspx",2022-01-07 15:27:25+00:00,2022-01-07 15:27:25+00:00,Charleroi,PA,WASHINGTON,40.1469,-79.9033,155,103.75
10006379,PROGRESS CCC,179 PROGRESS AVENUE,WAYNESBURG,PA,15370,39.904212842918575,-80.13447274758244,STATE,MINIMUM,-999.0,OPEN,https://www.cor.pa.gov/Facilities/CommunityCorrections/Documents/Region%203.pdf,2022-01-07 15:27:25+00:00,2022-01-07 15:27:25+00:00,Charleroi,PA,WASHINGTON,40.1469,-79.9033,155,103.75
10000738,FAYETTE COUNTY PRISON,12 COURT ST,UNIONTOWN,PA,15401,39.90208225741666,-79.72317446052885,COUNTY,NOT AVAILABLE,262.0,OPEN,"http://www.cor.pa.gov/Facilities/CountyPrisons/Pages/Inspection-Schedule,-Statistics-And-General-Info.aspx, http://www.cor.pa.gov/Facilities/CountyPrisons/Pages/County-Prison-Contact-Info.aspx",2022-01-07 15:27:25+00:00,2022-01-07 15:27:25+00:00,Charleroi,PA,WASHINGTON,40.1469,-79.9033,155,103.75
10003121,SCI GREENE,175 PROGRESS DR,WAYNESBURG,PA,15370,39.90623932075459,-80.13706126765365,STATE,CLOSE,1478.0,OPEN,http://www.cor.pa.gov/About%20Us/Statistics/Pages/Monthly-Population-Reports.aspx,2022-01-07 15:27:25+00:00,2022-01-07 15:27:25+00:00,Charleroi,PA,WASHINGTON,40.1469,-79.9033,155,103.75
10003109,SCI FAYETTE,50 OVERLOOK DR,LABELLE,PA,15450,40.00049348711821,-79.98798327207919,STATE,MAXIMUM,1826.0,OPEN,http://www.cor.pa.gov/About%20Us/Statistics/Pages/Monthly-Population-Reports.aspx,2022-01-07 15:27:25+00:00,2022-01-07 15:27:25+00:00,Charleroi,PA,WASHINGTON,40.1469,-79.9033,155,103.75
10005221,WAYNE COUNTY CORRECTIONAL FACILITY,44 MID-WAYNE DR,HONESDALE,PA,18431,41.54869833367216,-75.20883441540339,COUNTY,NOT AVAILABLE,201.0,OPEN,"http://www.cor.pa.gov/Facilities/CountyPrisons/Pages/Inspection-Schedule,-Statistics-And-General-Info.aspx, http://www.cor.pa.gov/Facilities/CountyPrisons/Pages/County-Prison-Contact-Info.aspx",2022-01-07 15:27:25+00:00,2022-01-07 15:27:25+00:00,Scranton,PA,LACKAWANNA,41.4428,-75.6231,385,263.6666666666667
10005223,MINSEC OF SCRANTON,539 LINDEN ST,SCRANTON,PA,18503,41.40854956434984,-75.66108196167659,LOCAL,NOT AVAILABLE,30.0,OPEN,https://www.facebook.com/pages/Minsec-Scranton/162081287143773,2022-01-07 15:27:25+00:00,2022-01-07 15:27:25+00:00,Scranton,PA,LACKAWANNA,41.4428,-75.6231,385,263.6666666666667
10003049,LACKAWANNA COUNTY PRISON,1371 N WASHINGTON AVE,SCRANTON,PA,18509,41.42265761763315,-75.64837181417558,COUNTY,MAXIMUM,1183.0,OPEN,"http://www.cor.pa.gov/Facilities/CountyPrisons/Pages/Inspection-Schedule,-Statistics-And-General-Info.aspx, http://www.cor.pa.gov/Facilities/CountyPrisons/Pages/County-Prison-Contact-Info.aspx",2022-01-07 15:27:25+00:00,2022-01-07 15:27:25+00:00,Scranton,PA,LACKAWANNA,41.4428,-75.6231,385,263.6666666666667
10003059,PA CHILD CARE,701 SATHERS DR,PITTSTON TOWNSHIP,PA,18640,41.31229632379005,-75.72590593772624,NOT AVAILABLE,JUVENILE,60.0,OPEN,http://www.midatlanticyouth.com/pdfs/PREA%20Information.pdf,2022-01-07 15:27:25+00:00,2022-01-07 15:27:25+00:00,Scranton,PA,LACKAWANNA,41.4428,-75.6231,385,263.6666666666667
10003047,SCI WAYMART,11 FAIRVIEW DR,WAYMART,PA,18472,41.57445181175324,-75.42936698598824,STATE,MAXIMUM,1522.0,OPEN,http://www.cor.pa.gov/About%20Us/Statistics/Pages/Monthly-Population-Reports.aspx,2022-01-07 15:27:25+00:00,2022-01-07 15:27:25+00:00,Scranton,PA,LACKAWANNA,41.4428,-75.6231,385,263.6666666666667
10000714,WYOMING COUNTY CORRECTIONAL FACILITY,10 STARK ST,TUNKHANNOCK,PA,18657,41.54096964947759,-75.95039463423385,COUNTY,NOT AVAILABLE,78.0,OPEN,"http://www.cor.pa.gov/Facilities/CountyPrisons/Pages/Inspection-Schedule,-Statistics-And-General-Info.aspx, http://www.cor.pa.gov/Facilities/CountyPrisons/Pages/County-Prison-Contact-Info.aspx",2022-01-07 15:27:25+00:00,2022-01-07 15:27:25+00:00,Scranton,PA,LACKAWANNA,41.4428,-75.6231,385,263.6666666666667
10005222,SCRANTON COMMUNITY CORRECTIONS CENTER,240 ADAMS AVE,SCRANTON,PA,18503,41.40782319071652,-75.66111493301082,STATE,NOT AVAILABLE,36.0,OPEN,"http://www.cor.pa.gov/Facilities/CommunityCorrections/Pages/default.aspx, http://www.cor.pa.gov/Facilities/CommunityCorrections/Documents/What%20is%20Community%20Corrections.pdf",2022-01-07 15:27:25+00:00,2022-01-07 15:27:25+00:00,Scranton,PA,LACKAWANNA,41.4428,-75.6231,385,263.6666666666667
10000715,LACKAWANNA COUNTY COMMUNITY CORRECTIONS CENTER,614 SPRUCE ST,SCRANTON,PA,18503,41.406788142601044,-75.66215815727337,COUNTY,MINIMUM,-999.0,OPEN,https://www.lackawannacounty.org/index.php/departmentsagencies/public-safty,2022-01-07 15:27:25+00:00,2022-01-07 15:27:25+00:00,Scranton,PA,LACKAWANNA,41.4428,-75.6231,385,263.6666666666667
10003050,LACKAWANNA COUNTY JUVENILE DETENTION UNIT,415 N WASHINGTON AVE,SCRANTON,PA,18503,41.41107838301149,-75.66087047175249,COUNTY,JUVENILE,10.0,OPEN,https://www.lackawannacounty.org/index.php/departmentsagencies/public-safty,2022-01-07 15:27:25+00:00,2022-01-07 15:27:25+00:00,Scranton,PA,LACKAWANNA,41.4428,-75.6231,385,263.6666666666667
10000712,USP CANAAN,3057 ERIC J. WILLIAMS MEMORIAL DRIVE,WAYMART,PA,18472,41.562937612212615,-75.4213317951197,FEDERAL,MAXIMUM,960.0,OPEN,http://www.bop.gov/about/statistics/population_statistics.jsp,2022-01-07 15:27:25+00:00,2022-01-07 15:27:25+00:00,Scranton,PA,LACKAWANNA,41.4428,-75.6231,385,263.6666666666667
10000713,USP CANAAN CAMP,3057 ERIC J. WILLIAMS MEMORIAL DRIVE,WAYMART,PA,18472,41.567611000895056,-75.41255541307439,FEDERAL,MINIMUM,128.0,OPEN,http://www.bop.gov/about/statistics/population_statistics.jsp,2022-01-07 15:27:25+00:00,2022-01-07 15:27:25+00:00,Scranton,PA,LACKAWANNA,41.4428,-75.6231,385,263.6666666666667
10003060,LUZERNE COUNTY CORRECTIONAL FACILITY,99 WATER ST,WILKES-BARRE,PA,18702,41.25405541142076,-75.8757393630042,COUNTY,NOT AVAILABLE,778.0,OPEN,"http://www.cor.pa.gov/Facilities/CountyPrisons/Pages/Inspection-Schedule,-Statistics-And-General-Info.aspx, http://www.cor.pa.gov/Facilities/CountyPrisons/Pages/County-Prison-Contact-Info.aspx",2022-01-07 15:27:25+00:00,2022-01-07 15:27:25+00:00,Scranton,PA,LACKAWANNA,41.4428,-75.6231,385,263.6666666666667
10000718,SCI DALLAS,1000 FOLLIES RD,DALLAS,PA,18612,41.272558636025266,-76.01173392430023,STATE,MEDIUM,1941.0,OPEN,http://www.cor.pa.gov/About%20Us/Statistics/Pages/Monthly-Population-Reports.aspx,2022-01-07 15:27:25+00:00,2022-01-07 15:27:25+00:00,Scranton,PA,LACKAWANNA,41.4428,-75.6231,385,263.6666666666667
10006642,ABRAXAS ACADEMY,1000 ACADEMY DRIVE,MORGANTOWN,PA,19543,40.191808425691825,-75.9169530884003,STATE,JUVENILE,156.0,OPEN,https://www.geogroup.com/Portals/0/PREA_Certifications/Abraxas%20Academy%20Morgantown%20-%20PREA%20Auditor's%20Final%20Report%20_%203-23-17.pdf,2022-01-07 15:27:25+00:00,2022-01-07 15:27:25+00:00,Reading Airport,PA,BERKS,40.3833,-75.9686,434,251.58333333333334
10002270,BERKS COUNTY JAIL SYSTEM,1287 COUNTY WELFARE RD,LEESPORT,PA,19533,40.385264314320814,-76.02069527133276,COUNTY,NOT AVAILABLE,1546.0,OPEN,"http://www.cor.pa.gov/Facilities/CountyPrisons/Pages/Inspection-Schedule,-Statistics-And-General-Info.aspx, http://www.cor.pa.gov/Facilities/CountyPrisons/Pages/County-Prison-Contact-Info.aspx",2022-01-07 15:27:25+00:00,2022-01-07 15:27:25+00:00,Reading Airport,PA,BERKS,40.3833,-75.9686,434,251.58333333333334
10002271,BERKS COUNTY COMMUNITY REENTRY CENTER,1261 COUNTY WELFARE RD,LEESPORT,PA,19533,40.38289771712255,-76.01771261726873,COUNTY,NOT AVAILABLE,-999.0,OPEN,http://www.co.berks.pa.us/Dept/Jail/Pages/HomePage.aspx,2022-01-07 15:27:25+00:00,2022-01-07 15:27:25+00:00,Reading Airport,PA,BERKS,40.3833,-75.9686,434,251.58333333333334
10006847,BERKS COUNTY RESIDENTIAL CENTER,1040 BERKS ROAD,LEESPORT,PA,19533,40.379468243906494,-76.01953955373568,COUNTY,NOT AVAILABLE,-999.0,OPEN,http://www.co.berks.pa.us/Dept/BCRC/Pages/default.aspx,2022-01-07 15:27:25+00:00,2022-01-07 15:27:25+00:00,Reading Airport,PA,BERKS,40.3833,-75.9686,434,251.58333333333334
10000725,SCHUYLKILL COUNTY PRISON,230 SANDERSON ST,POTTSVILLE,PA,17901,40.688516745263215,-76.19925296503548,COUNTY,NOT AVAILABLE,277.0,OPEN,"http://www.cor.pa.gov/Facilities/CountyPrisons/Pages/Inspection-Schedule,-Statistics-And-General-Info.aspx, http://www.cor.pa.gov/Facilities/CountyPrisons/Pages/County-Prison-Contact-Info.aspx",2022-01-07 15:27:25+00:00,2022-01-07 15:27:25+00:00,Reading Airport,PA,BERKS,40.3833,-75.9686,434,251.58333333333334
10000729,YOUTH FORESTRY CAMP #3,4534 TARKILN ROAD,JAMES CREEK,PA,16657,40.311021076024794,-78.12205483648891,STATE,JUVENILE,50.0,OPEN,https://www.dhs.pa.gov/Services/Children/Pages/Forestry-Programs.aspx,2022-01-07 15:27:25+00:00,2022-01-07 15:27:25+00:00,Altoona,PA,BLAIR,40.515,-78.3889,177,150.58333333333334
10003982,BLAIR COUNTY PRISON,419 MARKET SQUARE ALLEY,HOLLIDAYSBURG,PA,16648,40.42859917572133,-78.39133599220582,COUNTY,NOT AVAILABLE,350.0,OPEN,"http://www.cor.pa.gov/Facilities/CountyPrisons/Pages/Inspection-Schedule,-Statistics-And-General-Info.aspx, http://www.cor.pa.gov/Facilities/CountyPrisons/Pages/County-Prison-Contact-Info.aspx",2022-01-07 15:27:25+00:00,2022-01-07 15:27:25+00:00,Altoona,PA,BLAIR,40.515,-78.3889,177,150.58333333333334
10005786,HUNTINGDON COUNTY PRISON,300 CHURCH STREET,HUNTINGDON,PA,16652,40.48542410078896,-78.00804413606109,COUNTY,NOT AVAILABLE,48.0,OPEN,"http://www.cor.pa.gov/Facilities/CountyPrisons/Pages/Inspection-Schedule,-Statistics-And-General-Info.aspx, http://www.huntingdoncounty.net/Dept/Prison/Pages/default.aspx",2022-01-07 15:27:25+00:00,2022-01-07 15:27:25+00:00,Altoona,PA,BLAIR,40.515,-78.3889,177,150.58333333333334
10003082,SCI SMITHFIELD,1120 PIKE ST,HUNTINGDON,PA,16652,40.498663968840205,-78.03556697062629,STATE,CLOSE,1125.0,OPEN,http://www.cor.pa.gov/About%20Us/Statistics/Pages/Monthly-Population-Reports.aspx,2022-01-07 15:27:25+00:00,2022-01-07 15:27:25+00:00,Altoona,PA,BLAIR,40.515,-78.3889,177,150.58333333333334
10003083,FCI LORETTO,772 SAINT JOSEPH ST,LORETTO,PA,15940,40.495701800346076,-78.62186790769891,FEDERAL,MINIMUM,677.0,OPEN,http://www.bop.gov/about/statistics/population_statistics.jsp,2022-01-07 15:27:25+00:00,2022-01-07 15:27:25+00:00,Altoona,PA,BLAIR,40.515,-78.3889,177,150.58333333333334
10003084,FCI LORETTO CAMP,772 SAINT JOSEPH ST,LORETTO,PA,15940,40.49770852421269,-78.61887379222532,FEDERAL,MINIMUM,107.0,OPEN,http://www.bop.gov/about/statistics/population_statistics.jsp,2022-01-07 15:27:25+00:00,2022-01-07 15:27:25+00:00,Altoona,PA,BLAIR,40.515,-78.3889,177,150.58333333333334
10000721,SCI HOUTZDALE,209 INSTITUTION DR,HOUTZDALE,PA,16698,40.81216962479681,-78.35675002824665,STATE,MEDIUM,2365.0,OPEN,http://www.cor.pa.gov/About%20Us/Statistics/Pages/Monthly-Population-Reports.aspx,2022-01-07 15:27:25+00:00,2022-01-07 15:27:25+00:00,Altoona,PA,BLAIR,40.515,-78.3889,177,150.58333333333334
10000728,SCI HUNTINGDON,1100 PIKE ST,HUNTINGDON,PA,16654,40.49111915571712,-78.028716589574,STATE,MAXIMUM,1804.0,OPEN,http://www.cor.pa.gov/About%20Us/Statistics/Pages/Monthly-Population-Reports.aspx,2022-01-07 15:27:25+00:00,2022-01-07 15:27:25+00:00,Altoona,PA,BLAIR,40.515,-78.3889,177,150.58333333333334
10003090,SHUMAN JUVENILE DETENTION CENTER,7150 HIGHLAND DRIVE,PITTSBURGH,PA,15206,40.48183545664652,-79.90315293613068,COUNTY,JUVENILE,120.0,OPEN,http://www.alleghenycounty.us/shuman/prison-rape-elimination-act-(prea).aspx,2022-01-07 15:27:25+00:00,2022-01-07 15:27:25+00:00,Lawrenceville,PA,ALLEGHENY,40.4656,-79.9611,151,93.5
10003093,ALLEGHENY COUNTY JAIL,950 2ND AVE,PITTSBURGH,PA,15219,40.43449309194165,-79.99345696172013,COUNTY,NOT AVAILABLE,3164.0,OPEN,"http://www.cor.pa.gov/Facilities/CountyPrisons/Pages/Inspection-Schedule,-Statistics-And-General-Info.aspx, http://www.cor.pa.gov/Facilities/CountyPrisons/Pages/County-Prison-Contact-Info.aspx",2022-01-07 15:27:25+00:00,2022-01-07 15:27:25+00:00,Lawrenceville,PA,ALLEGHENY,40.4656,-79.9611,151,93.5
10005233,ALLEGHENY COUNTY TREATMENT ALTERNATIVES (ACTA),2410 FIFTH AVENUE,PITTSBURGH,PA,15213,40.4367526308935,-79.97038732746408,COUNTY,NOT AVAILABLE,50.0,OPEN,https://www.theprogrampgh.org/,2022-01-07 15:27:25+00:00,2022-01-07 15:27:25+00:00,Lawrenceville,PA,ALLEGHENY,40.4656,-79.9611,151,93.5
10005231,RENEWAL INCORPORATED - MALE OFFENDERS,339 BOULEVARD OF THE ALLIES,PITTSBURGH,PA,15222,40.43825927774404,-80.00074081710376,MULTI,NOT AVAILABLE,-999.0,OPEN,http://renewalinc.com/,2022-01-07 15:27:25+00:00,2022-01-07 15:27:25+00:00,Lawrenceville,PA,ALLEGHENY,40.4656,-79.9611,151,93.5
10006849,RENEWAL INCORPORATED,704 SECOND AVE,PITTSBURGH,PA,15219,40.43520219626749,-79.99429887475324,MULTI,NOT AVAILABLE,-999.0,OPEN,http://renewalinc.com/,2022-01-07 15:27:25+00:00,2022-01-07 15:27:25+00:00,Lawrenceville,PA,ALLEGHENY,40.4656,-79.9611,151,93.5
10006378,PITTSBURGH CCC,535 SOUTH AIKEN AVENUE,PITTSBURGH,PA,15232,40.454859637714236,-79.93758147233139,STATE,MINIMUM,-999.0,OPEN,https://www.cor.pa.gov/Facilities/CommunityCorrections/Documents/Region%201.pdf,2022-01-07 15:27:25+00:00,2022-01-07 15:27:25+00:00,Lawrenceville,PA,ALLEGHENY,40.4656,-79.9611,151,93.5
10003092,NEW OUTLOOK ACADEMY,900 AGNEW RD,PITTSBURGH,PA,15227,40.40072462084588,-79.96556452108926,NOT AVAILABLE,JUVENILE,120.0,OPEN,http://www.theacademyschools.com/default.htm,2022-01-07 15:27:25+00:00,2022-01-07 15:27:25+00:00,Lawrenceville,PA,ALLEGHENY,40.4656,-79.9611,151,93.5
10003222,ANNA M KROSS CENTER,18-18 HAZEN ST,EAST ELMHURST,NY,11370,40.792180178508275,-73.88812297126208,LOCAL,NOT AVAILABLE,2400.0,OPEN,https://www.cobanyc.org/anna-m-kross-center,2022-01-07 15:27:25+00:00,2022-01-07 15:27:25+00:00,Queens,NY,QUEENS,40.7375,-73.8244,429,255.58333333333334
10001506,ROSE M SINGER CENTER,19-19 HAZEN ST,EAST ELMHURST,NY,11370,40.79068338106795,-73.87745716357892,LOCAL,NOT AVAILABLE,1700.0,OPEN,https://www.cobanyc.org/rose-m-singer-center,2022-01-07 15:27:25+00:00,2022-01-07 15:27:25+00:00,Queens,NY,QUEENS,40.7375,-73.8244,429,255.58333333333334
10003225,GEORGE MOTCHAN DETENTION CENTER,15-15 HAZEN ST,EAST ELMHURST,NY,11370,40.793245162459264,-73.88102302922414,LOCAL,NOT AVAILABLE,2098.0,OPEN,"http://www1.nyc.gov/site/doc/about/about-doc.page, http://www.correctionhistory.org/html/chronicl/nycdoc/html/jailist1.html#EMTC",2022-01-07 15:27:25+00:00,2022-01-07 15:27:25+00:00,Queens,NY,QUEENS,40.7375,-73.8244,429,255.58333333333334
10005816,SAINT JOHNS - RICHMOND HILL DETENTION CENTER,130-20 107TH AVENUE,RICHMOND HILL,NY,11419,40.6869684804847,-73.81341494941792,LOCAL,JUVENILE,12.0,OPEN,http://stjohnsresidence.org/programs.html,2022-01-07 15:27:25+00:00,2022-01-07 15:27:25+00:00,Queens,NY,QUEENS,40.7375,-73.8244,429,255.58333333333334
10000768,GEORGE R VIERNO CENTER,09-09 HAZEN ST,EAST ELMHURST,NY,11370,40.78907953744703,-73.87369629497323,LOCAL,NOT AVAILABLE,1350.0,OPEN,https://www.cobanyc.org/george-r-vierno-center,2022-01-07 15:27:25+00:00,2022-01-07 15:27:25+00:00,Queens,NY,QUEENS,40.7375,-73.8244,429,255.58333333333334
10003218,VERNON C BAIN CENTER [BARGE],1 HALLECK ST,BRONX,NY,10474,40.80196282643535,-73.87696382387,LOCAL,MAXIMUM,800.0,OPEN,https://www1.nyc.gov/site/doc/about/facilities.page,2022-01-07 15:27:25+00:00,2022-01-07 15:27:25+00:00,Queens,NY,QUEENS,40.7375,-73.8244,429,255.58333333333334
10003220,WEST FACILITY,16-06 HAZEN ST,EAST ELMHURST,NY,11370,40.791828578758825,-73.89065773625177,LOCAL,NOT AVAILABLE,1900.0,OPEN,https://www.cobanyc.org/west-facility,2022-01-07 15:27:25+00:00,2022-01-07 15:27:25+00:00,Queens,NY,QUEENS,40.7375,-73.8244,429,255.58333333333334
10003219,ERIC M TAYLOR CENTER,10-10 HAZEN ST,EAST ELMHURST,NY,11370,40.78968367500117,-73.88634059451499,LOCAL,NOT AVAILABLE,1851.0,OPEN,https://www.cobanyc.org/eric-m-taylor-center,2022-01-07 15:27:25+00:00,2022-01-07 15:27:25+00:00,Queens,NY,QUEENS,40.7375,-73.8244,429,255.58333333333334
10003221,OTIS BANTUM CORRECTIONAL CENTER,16-00 HAZEN ST,EAST ELMHURST,NY,11370,40.7952770046376,-73.89011513769347,LOCAL,MAXIMUM,2000.0,OPEN,https://www.cobanyc.org/otis-bantum-correctional-center,2022-01-07 15:27:25+00:00,2022-01-07 15:27:25+00:00,Queens,NY,QUEENS,40.7375,-73.8244,429,255.58333333333334
10003224,NORTH INFIRMARY COMMAND,15-00 HAZEN ST,EAST ELMHURST,NY,11370,40.795427172907935,-73.8867579630633,LOCAL,MAXIMUM,400.0,OPEN,https://www.cobanyc.org/north-infirmary-command-0,2022-01-07 15:27:25+00:00,2022-01-07 15:27:25+00:00,Queens,NY,QUEENS,40.7375,-73.8244,429,255.58333333333334
10003226,ROBERT N DAVOREN COMPLEX,11-11 HAZEN ST,EAST ELMHURST,NY,11370,40.788924080812905,-73.88066101537756,LOCAL,NOT AVAILABLE,2238.0,OPEN,https://www.cobanyc.org/robert-n-davoren-center,2022-01-07 15:27:25+00:00,2022-01-07 15:27:25+00:00,Queens,NY,QUEENS,40.7375,-73.8244,429,255.58333333333334
10001507,BRONX COMMUNITY RE-ENTRY CENTER,2534 CRESTON AVE,BRONX,NY,10468,40.86355326330427,-73.89728872407072,FEDERAL,MINIMUM,196.0,OPEN,https://www.geogroup.com/FacilityDetail/FacilityID/168,2022-01-07 15:27:25+00:00,2022-01-07 15:27:25+00:00,Queens,NY,QUEENS,40.7375,-73.8244,429,255.58333333333334
10005814,QUEENS DETENTION COMPLEX,126-01 82ND AVENUE,KEW GARDENS,NY,11415,40.71299119783325,-73.82548562524305,LOCAL,NOT AVAILABLE,-999.0,OPEN,https://www.cobanyc.org/queens-detention-complex,2022-01-07 15:27:25+00:00,2022-01-07 15:27:25+00:00,Queens,NY,QUEENS,40.7375,-73.8244,429,255.58333333333334
10007015,ELMHURST HOSPITAL PRISON WARD,79-01 BROADWAY,QUEENS,NY,11373,40.74506382907497,-73.885530068615,STATE,NOT AVAILABLE,-999.0,OPEN,https://www.cobanyc.org/elmhurst-hospital-prison-ward,2022-01-07 15:27:25+00:00,2022-01-07 15:27:25+00:00,Queens,NY,QUEENS,40.7375,-73.8244,429,255.58333333333334
10002276,ADAMS COUNTY ADULT CORRECTIONAL COMPLEX,45 MAJOR BELL LANE,GETTYSBURG,PA,17325,39.85870808683407,-77.15780790597725,COUNTY,NOT AVAILABLE,449.0,OPEN,"http://www.cor.pa.gov/Facilities/CountyPrisons/Pages/Inspection-Schedule,-Statistics-And-General-Info.aspx, http://www.cor.pa.gov/Facilities/CountyPrisons/Pages/County-Prison-Contact-Info.aspx",2022-01-07 15:27:25+00:00,2022-01-07 15:27:25+00:00,Arendtsville,PA,ADAMS,39.9233,-77.3081,210,172.79166666666666
10003105,FRANKLIN COUNTY JAIL,1804 OPPORTUNITY AVE,CHAMBERSBURG,PA,17201,40.001772773847186,-77.64446314492388,COUNTY,NOT AVAILABLE,468.0,OPEN,"http://www.cor.pa.gov/Facilities/CountyPrisons/Pages/Inspection-Schedule,-Statistics-And-General-Info.aspx, http://www.cor.pa.gov/Facilities/CountyPrisons/Pages/County-Prison-Contact-Info.aspx",2022-01-07 15:27:25+00:00,2022-01-07 15:27:25+00:00,Arendtsville,PA,ADAMS,39.9233,-77.3081,210,172.79166666666666
10003106,ABRAXAS YOUTH CENTER,10058 SOUTH MOUNTAIN RD,SOUTH MOUNTAIN,PA,17261,39.84791510962931,-77.49491781115458,STATE,JUVENILE,72.0,OPEN,https://www.linkedin.com/school/abraxas-leadership-development-program/about/,2022-01-07 15:27:25+00:00,2022-01-07 15:27:25+00:00,Arendtsville,PA,ADAMS,39.9233,-77.3081,210,172.79166666666666
10006641,SOUTH MOUNTAIN SECURE TREATMENT UNIT,10056 SOUTH MOUNTAIN ROAD,SOUTH MOUNTAIN,PA,17261,39.843240785139095,-77.49490398195813,STATE,JUVENILE,48.0,OPEN,https://www.dhs.pa.gov/Services/Children/Pages/Forestry-Programs.aspx,2022-01-07 15:27:25+00:00,2022-01-07 15:27:25+00:00,Arendtsville,PA,ADAMS,39.9233,-77.3081,210,172.79166666666666
10006644,ABRAXAS LEADERSHIP DEVELOPMENT PROGRAM,10058 SOUTH MOUNTAIN ROAD,SOUTH MOUNTAIN,PA,17261,39.84420767083279,-77.49569277390484,STATE,JUVENILE,128.0,OPEN,"https://www.geogroup.com/Portals/0/PREA_Certifications/Abraxas%20Leadership%20Development%20Program_PREA%20Report%20.pdf, https://www.geogroup.com/Locations",2022-01-07 15:27:25+00:00,2022-01-07 15:27:25+00:00,Arendtsville,PA,ADAMS,39.9233,-77.3081,210,172.79166666666666
10003065,ARMSTRONG COUNTY JAIL,171 STALEY'S COURT RD,KITTANNING,PA,16201,40.819063895607016,-79.48036866228875,COUNTY,NOT AVAILABLE,158.0,OPEN,"http://www.cor.pa.gov/Facilities/CountyPrisons/Pages/Inspection-Schedule,-Statistics-And-General-Info.aspx, http://www.cor.pa.gov/Facilities/CountyPrisons/Pages/County-Prison-Contact-Info.aspx",2022-01-07 15:27:25+00:00,2022-01-07 15:27:25+00:00,Kittanning,PA,ARMSTRONG,40.8142,-79.565,146,85.33333333333333
10003981,BUTLER COUNTY PRISON,202 SOUTH WASHINGTON STREET,BUTLER,PA,16001,40.859538561460795,-79.89756056828334,COUNTY,NOT AVAILABLE,564.0,OPEN,"http://www.cor.pa.gov/Facilities/CountyPrisons/Pages/Inspection-Schedule,-Statistics-And-General-Info.aspx, http://www.cor.pa.gov/Facilities/CountyPrisons/Pages/County-Prison-Contact-Info.aspx",2022-01-07 15:27:25+00:00,2022-01-07 15:27:25+00:00,Kittanning,PA,ARMSTRONG,40.8142,-79.565,146,85.33333333333333
10006850,SUMMIT ACADEMY,839 HERMAN ROAD,BUTLER,PA,16002,40.830753570855315,-79.81466141417567,NOT AVAILABLE,JUVENILE,353.0,OPEN,http://www.theacademyschools.com/default.htm,2022-01-07 15:27:25+00:00,2022-01-07 15:27:25+00:00,Kittanning,PA,ARMSTRONG,40.8142,-79.565,146,85.33333333333333
10002268,BEAVER COUNTY JAIL,6000 WOODLAWN BLVD,ALIQUIPPA,PA,15001,40.64594884502631,-80.24203691137812,COUNTY,NOT AVAILABLE,402.0,OPEN,"http://www.cor.pa.gov/Facilities/CountyPrisons/Pages/Inspection-Schedule,-Statistics-And-General-Info.aspx, http://www.cor.pa.gov/Facilities/CountyPrisons/Pages/County-Prison-Contact-Info.aspx",2022-01-07 15:27:25+00:00,2022-01-07 15:27:25+00:00,Fort McIntosh,PA,BEAVER,40.691857,-80.299211,139,88.41666666666667
10002266,CENTRE COUNTY CORRECTIONAL FACILITY,700 RISHEL HILL RD,BELLEFONTE,PA,16823,40.878855023376204,-77.77620813551351,COUNTY,MAXIMUM,397.0,OPEN,"http://www.cor.pa.gov/Facilities/CountyPrisons/Pages/Inspection-Schedule,-Statistics-And-General-Info.aspx, http://www.cor.pa.gov/Facilities/CountyPrisons/Pages/County-Prison-Contact-Info.aspx",2022-01-07 15:27:25+00:00,2022-01-07 15:27:25+00:00,State College,PA,CENTRE,40.8114,-77.8769,260,187.125
10005225,CENTRAL COUNTIES YOUTH CENTER,148 PARADISE RD,BELLEFONTE,PA,16823,40.877885340290106,-77.78142195406606,COUNTY,JUVENILE,14.0,OPEN,"http://www.jdcap.org/SiteCollectionDocuments/JDCAP%20Directory201008.pdf, https://www.facebook.com/pages/Central-Counties-Youth-Center/127470570641255",2022-01-07 15:27:25+00:00,2022-01-07 15:27:25+00:00,State College,PA,CENTRE,40.8114,-77.8769,260,187.125
10000726,MIFFLIN COUNTY CORRECTIONAL FACILITY,103 W MARKET ST,LEWISTON,PA,17044,40.596768926060044,-77.57652553552775,COUNTY,NOT AVAILABLE,198.0,OPEN,"http://www.cor.pa.gov/Facilities/CountyPrisons/Pages/Inspection-Schedule,-Statistics-And-General-Info.aspx, http://www.cor.pa.gov/Facilities/CountyPrisons/Pages/County-Prison-Contact-Info.aspx",2022-01-07 15:27:25+00:00,2022-01-07 15:27:25+00:00,State College,PA,CENTRE,40.8114,-77.8769,260,187.125
10000720,CI MOSHANNON VALLEY,555 GEO DRIVE,PHILIPSBURG,PA,16866,40.92087743409466,-78.24243087320387,FEDERAL,MINIMUM,1878.0,OPEN,"http://www.bop.gov/about/statistics/population_statistics.jsp, https://www.geogroup.com/Locations",2022-01-07 15:27:25+00:00,2022-01-07 15:27:25+00:00,State College,PA,CENTRE,40.8114,-77.8769,260,187.125
10006363,SCI BENNER TOWNSHIP,301 INSTITUTION DRIVE,BELLEFONTE,PA,16823,40.85940191725312,-77.77782870564596,STATE,MEDIUM,1900.0,OPEN,http://www.cor.pa.gov/About%20Us/Statistics/Pages/Monthly-Population-Reports.aspx,2022-01-07 15:27:25+00:00,2022-01-07 15:27:25+00:00,State College,PA,CENTRE,40.8114,-77.8769,260,187.125
10003062,SCI ROCKVIEW,1 ROCKVIEW PLACE,BELLEFONTE,PA,16823,40.85071107719678,-77.77794282123374,STATE,MEDIUM,2283.0,OPEN,http://www.cor.pa.gov/About%20Us/Statistics/Pages/Monthly-Population-Reports.aspx,2022-01-07 15:27:25+00:00,2022-01-07 15:27:25+00:00,State College,PA,CENTRE,40.8114,-77.8769,260,187.125
10001495,CHESTER COUNTY PRISON,501 S WAWASET RD,WEST CHESTER,PA,19382,39.9081963519678,-75.65972234036118,COUNTY,MAXIMUM,1137.0,OPEN,"http://www.cor.pa.gov/Facilities/CountyPrisons/Pages/Inspection-Schedule,-Statistics-And-General-Info.aspx, http://www.cor.pa.gov/Facilities/CountyPrisons/Pages/County-Prison-Contact-Info.aspx",2022-01-07 15:27:25+00:00,2022-01-07 15:27:25+00:00,New Garden,PA,CHESTER,39.8344,-75.7678,365,212.75
10002277,CHESTER COUNTY YOUTH CENTER,505 S WAWASET RD,WEST CHESTER,PA,19832,39.905065641469285,-75.66235646176733,COUNTY,JUVENILE,60.0,OPEN,http://www.chesco.org/381/Youth-Center,2022-01-07 15:27:25+00:00,2022-01-07 15:27:25+00:00,New Garden,PA,CHESTER,39.8344,-75.7678,365,212.75
10003104,CUMBERLAND COUNTY PRISON,1101 CLAREMONT RD,CARLISLE,PA,17015,40.214850586901974,-77.16182149661428,COUNTY,NOT AVAILABLE,720.0,OPEN,"https://www.ccpa.net/95/Prison, http://www.cor.pa.gov/Facilities/CountyPrisons/Pages/County-Prison-Contact-Info.aspx",2022-01-07 15:27:25+00:00,2022-01-07 15:27:25+00:00,Carlisle,PA,CUMBERLAND,40.2464,-77.1867,359,189.45833333333334
10003097,PERRY COUNTY PRISON,300 S CARLISLE ST,NEW BLOOMFIELD,PA,17068,40.41394768589281,-77.186921652223,COUNTY,NOT AVAILABLE,135.0,OPEN,"http://www.cor.pa.gov/Facilities/CountyPrisons/Pages/Inspection-Schedule,-Statistics-And-General-Info.aspx, http://www.cor.pa.gov/Facilities/CountyPrisons/Pages/County-Prison-Contact-Info.aspx",2022-01-07 15:27:25+00:00,2022-01-07 15:27:25+00:00,Carlisle,PA,CUMBERLAND,40.2464,-77.1867,359,189.45833333333334
10001492,LOYSVILLE YOUTH DEVELOPMENT CENTER,10 OPPORTUNITY DR,LOYSVILLE,PA,17047,40.370341167036564,-77.34896539239219,STATE,JUVENILE,108.0,OPEN,http://pafamiliesinc.org/resources/view/loysville-youth-development-center,2022-01-07 15:27:25+00:00,2022-01-07 15:27:25+00:00,Carlisle,PA,CUMBERLAND,40.2464,-77.1867,359,189.45833333333334
10003043,ERIE COUNTY PRISON,1618 ASH ST,ERIE,PA,16503,42.12412913157327,-80.06709470878953,COUNTY,MAXIMUM,902.0,OPEN,"http://www.cor.pa.gov/Facilities/CountyPrisons/Pages/Inspection-Schedule,-Statistics-And-General-Info.aspx, http://www.cor.pa.gov/Facilities/CountyPrisons/Pages/County-Prison-Contact-Info.aspx",2022-01-07 15:27:25+00:00,2022-01-07 15:27:25+00:00,Erie,PA,ERIE,42.1428,-80.0372,149,101.875
10003042,EDMUND L. THOMAS ADOLESCENT CENTER,4728 LAKE PLEASANT RD,ERIE,PA,16504,42.10066193125282,-80.04099926488094,COUNTY,JUVENILE,28.0,OPEN,https://www.facebook.com/pages/Edmund-L-Thomas-Adolescent-Center/1663908623848319,2022-01-07 15:27:25+00:00,2022-01-07 15:27:25+00:00,Erie,PA,ERIE,42.1428,-80.0372,149,101.875
10006376,ERIE CCC,137 WEST 2ND STREET,ERIE,PA,16507,42.13192439116047,-80.09046900974383,STATE,MINIMUM,-999.0,OPEN,https://www.yourerie.com/news/local-news/erie-community-corrections-facility-gives-tour-to-show-day-to-day-operations/,2022-01-07 15:27:25+00:00,2022-01-07 15:27:25+00:00,Erie,PA,ERIE,42.1428,-80.0372,149,101.875
10003044,ERIE COUNTY PRE-RELEASE CENTER,450 E 16TH ST,ERIE,PA,16503,42.124443103334414,-80.06889167652008,COUNTY,MINIMUM,208.0,OPEN,https://eriecountypa.gov/departments/corrections/,2022-01-07 15:27:25+00:00,2022-01-07 15:27:25+00:00,Erie,PA,ERIE,42.1428,-80.0372,149,101.875
10000709,SCI ALBION,10745 STATE RT 18,ALBION,PA,16475,41.87872711720163,-80.36314055392448,STATE,CLOSE,2152.0,OPEN,"http://www.cor.pa.gov/About%20Us/Statistics/Pages/Monthly-Population-Reports.aspx, https://www.facebook.com/pages/Schuylkill-County-Prison/150803938280202",2022-01-07 15:27:25+00:00,2022-01-07 15:27:25+00:00,Erie,PA,ERIE,42.1428,-80.0372,149,101.875
10003048,SCI CAMBRIDGE SPRINGS,451 FULLERTON AVE,CAMBRIDGE SPRINGS,PA,16403,41.79709258671794,-80.05407360986946,STATE,MINIMUM,1018.0,OPEN,http://www.cor.pa.gov/About%20Us/Statistics/Pages/Monthly-Population-Reports.aspx,2022-01-07 15:27:25+00:00,2022-01-07 15:27:25+00:00,Erie,PA,ERIE,42.1428,-80.0372,149,101.875
10003072,NORTHAMPTON COUNTY JUVENILE JUSTICE CENTER,650 FERRY ST,EASTON,PA,18042,40.68900204179413,-75.21596407798705,COUNTY,JUVENILE,84.0,OPEN,https://www.nccpa.org/contacts/,2022-01-07 15:27:25+00:00,2022-01-07 15:27:25+00:00,Freemansburg,PA,NORTHAMPTON,40.6281,-75.3411,476,294.2083333333333
10003993,EDNA MAHAN CORRECTIONAL FACILITY FOR WOMEN,"30 COUNTY RD 513, P.O. BOX 4004",CLINTON,NJ,08809,40.62888671346775,-74.93457377246527,STATE,MAXIMUM,648.0,OPEN,"http://www.state.nj.us/corrections/pages/offender_stats.html, http://www.state.nj.us/treasury/omb/publications/12budget/pdf/26.pdf",2022-01-07 15:27:25+00:00,2022-01-07 15:27:25+00:00,Freemansburg,PA,NORTHAMPTON,40.6281,-75.3411,476,294.2083333333333
10006846,WEST HOMESTEAD CENTER,225 WEST SEVENTH AVENUE,WEST HOMESTEAD,PA,15120,40.40505346358489,-79.91506367685669,COUNTY,NOT AVAILABLE,56.0,OPEN,https://www.theprogrampgh.org/,2022-01-07 15:27:25+00:00,2022-01-07 15:27:25+00:00,North Braddock,PA,ALLEGHENY,40.402267,-79.860942,150,92.66666666666667
10003098,BUCKS COUNTY CORRECTIONAL FACILITY,1730 S EASTON RD,DOYLESTOWN,PA,18901,40.276014954091956,-75.13148288049251,COUNTY,MAXIMUM,764.0,OPEN,"http://www.buckscounty.org/government/Corrections, http://www.cor.pa.gov/Facilities/CountyPrisons/Pages/County-Prison-Contact-Info.aspx",2022-01-07 15:27:25+00:00,2022-01-07 15:27:25+00:00,Norristown,PA,MONTGOMERY,40.1122,-75.3092,452,250.45833333333334
10005234,BUCKS COUNTY YOUTH CENTER,1750 EASTON RD,DOYLESTOWN,PA,18901,40.27831947549206,-75.13005616502926,COUNTY,JUVENILE,54.0,OPEN,http://www.buckscounty.org/Courts/YouthCenter,2022-01-07 15:27:25+00:00,2022-01-07 15:27:25+00:00,Norristown,PA,MONTGOMERY,40.1122,-75.3092,452,250.45833333333334
10003102,MONTGOMERY COUNTY CORRECTIONAL FACILITY,60 EAGLEVILLE RD,EAGLEVILLE,PA,19403,40.158949580582274,-75.42341625964345,COUNTY,MAXIMUM,2080.0,OPEN,"http://www.cor.pa.gov/Facilities/CountyPrisons/Pages/Inspection-Schedule,-Statistics-And-General-Info.aspx, http://www.cor.pa.gov/Facilities/CountyPrisons/Pages/County-Prison-Contact-Info.aspx",2022-01-07 15:27:25+00:00,2022-01-07 15:27:25+00:00,Norristown,PA,MONTGOMERY,40.1122,-75.3092,452,250.45833333333334
10002274,BUCKS COUNTY WOMENS COMMUNITY CORRECTIONS CENTER,1730 S EASTON RD,DOYLESTOWN,PA,18901,40.27492889207102,-75.13420257011057,COUNTY,MINIMUM,50.0,OPEN,http://www.buckscounty.org/government/Corrections,2022-01-07 15:27:25+00:00,2022-01-07 15:27:25+00:00,Norristown,PA,MONTGOMERY,40.1122,-75.3092,452,250.45833333333334
10002273,BUCKS COUNTY MEN'S COMMUNITY CORRECTIONS,1730 S EASTON RD,DOYLESTOWN,PA,18901,40.27426778535981,-75.1361244045268,COUNTY,MINIMUM,270.0,OPEN,http://www.buckscounty.org/government/Corrections,2022-01-07 15:27:25+00:00,2022-01-07 15:27:25+00:00,Norristown,PA,MONTGOMERY,40.1122,-75.3092,452,250.45833333333334
10003103,MONTGOMERY COUNTY YOUTH CENTER,540 PORT INDIAN RD,NORRISTOWN,PA,19403,40.12904940586361,-75.38949152040412,COUNTY,JUVENILE,48.0,OPEN,https://www.montcopa.org/865/Child-Welfare,2022-01-07 15:27:25+00:00,2022-01-07 15:27:25+00:00,Norristown,PA,MONTGOMERY,40.1122,-75.3092,452,250.45833333333334
10002269,CAMBRIA COUNTY PRISON,425 MANOR DRIVE,EBENSBURG,PA,15931,40.484502756719415,-78.70149732531641,COUNTY,MAXIMUM,495.0,OPEN,"http://www.cor.pa.gov/Facilities/CountyPrisons/Pages/Inspection-Schedule,-Statistics-And-General-Info.aspx, http://www.cor.pa.gov/Facilities/CountyPrisons/Pages/County-Prison-Contact-Info.aspx",2022-01-07 15:27:25+00:00,2022-01-07 15:27:25+00:00,Strongstown,PA,INDIANA,40.5633,-78.92,165,115.125
10005228,INDIANA COUNTY JAIL,665 HOOD SCHOOL RD,INDIANA,PA,15701,40.64485965416393,-79.09611523384214,COUNTY,NOT AVAILABLE,256.0,OPEN,"http://www.cor.pa.gov/Facilities/CountyPrisons/Pages/Inspection-Schedule,-Statistics-And-General-Info.aspx, http://www.cor.pa.gov/Facilities/CountyPrisons/Pages/County-Prison-Contact-Info.aspx",2022-01-07 15:27:25+00:00,2022-01-07 15:27:25+00:00,Strongstown,PA,INDIANA,40.5633,-78.92,165,115.125
10005229,ADELPHOI VILLAGE-EBENSBURG,557 MANOR DR,EBENSBURG,PA,15931,40.49005945546156,-78.69689390295626,COUNTY,JUVENILE,12.0,OPEN,https://www.tribdem.com/adelphoi-village-coming-to-ebensburg/image_7ff0ecde-04f9-11e7-8f8d-672609faef67.html,2022-01-07 15:27:25+00:00,2022-01-07 15:27:25+00:00,Strongstown,PA,INDIANA,40.5633,-78.92,165,115.125
10003077,SCI PINE GROVE,189 FYOCK RD,INDIANA,PA,15701,40.647725095169136,-79.10022326962991,STATE,MAXIMUM,1163.0,OPEN,http://www.cor.pa.gov/About%20Us/Statistics/Pages/Monthly-Population-Reports.aspx,2022-01-07 15:27:25+00:00,2022-01-07 15:27:25+00:00,Strongstown,PA,INDIANA,40.5633,-78.92,165,115.125
10003118,GEORGE W HILL CORRECTIONAL FACILITY,500 CHEYNEY RD,THORNTON,PA,19373,39.90291083206808,-75.51405878754494,COUNTY,NOT AVAILABLE,1863.0,OPEN,"http://www.cor.pa.gov/Facilities/CountyPrisons/Pages/Inspection-Schedule,-Statistics-And-General-Info.aspx, http://www.cor.pa.gov/Facilities/CountyPrisons/Pages/County-Prison-Contact-Info.aspx",2022-01-07 15:27:25+00:00,2022-01-07 15:27:25+00:00,Marcus Hook,PA,DELAWARE,39.818715,-75.413973,425,234.875
10000742,GLEN MILLS SCHOOL,185 GLEN MILLS RD.,GLEN MILLS,PA,19342,39.91738705143342,-75.49808222813215,LOCAL,JUVENILE,900.0,OPEN,http://www.glenmillsschool.org/about/,2022-01-07 15:27:25+00:00,2022-01-07 15:27:25+00:00,Marcus Hook,PA,DELAWARE,39.818715,-75.413973,425,234.875
10003099,LEBANON COUNTY CORRECTIONAL FACILITY,730 E WALNUT ST,LEBANON,PA,17042,40.33802191106334,-76.39662791618751,COUNTY,NOT AVAILABLE,645.0,OPEN,"http://www.cor.pa.gov/Facilities/CountyPrisons/Pages/Inspection-Schedule,-Statistics-And-General-Info.aspx, http://www.cor.pa.gov/Facilities/CountyPrisons/Pages/County-Prison-Contact-Info.aspx",2022-01-07 15:27:25+00:00,2022-01-07 15:27:25+00:00,Lebanon,PA,LEBANON,40.338516,-76.394788,414,232.25
10003063,MONROE COUNTY CORRECTIONAL FACILITY,4250 MANOR DR,STROUDSBURG,PA,18360,40.95002312183986,-75.2894676603841,COUNTY,NOT AVAILABLE,409.0,OPEN,"http://www.cor.pa.gov/Facilities/CountyPrisons/Pages/Inspection-Schedule,-Statistics-And-General-Info.aspx, http://www.cor.pa.gov/Facilities/CountyPrisons/Pages/County-Prison-Contact-Info.aspx",2022-01-07 15:27:25+00:00,2022-01-07 15:27:25+00:00,Columbia,NJ,WARREN,40.924606,-75.067825,285,189.04166666666666
10001512,MOUNTAINVIEW YOUTH CORRECTIONAL FACILITY,31 PETTICOAT LN,ANNANDALE,NJ,08801,40.649491582870965,-74.86623638577396,STATE,JUVENILE,710.0,OPEN,"http://www.state.nj.us/corrections/pages/offender_stats.html, http://www.state.nj.us/treasury/omb/publications/12budget/pdf/26.pdf",2022-01-07 15:27:25+00:00,2022-01-07 15:27:25+00:00,Columbia,NJ,WARREN,40.924606,-75.067825,285,189.04166666666666
10006608,VOORHEES RESIDENTIAL COMMUNITY HOME,201 ROUTE 513,GLEN GARDNER,NJ,08826,40.681552844536625,-74.89146559703761,STATE,JUVENILE,27.0,OPEN,http://www.nj.gov/oag/jjc/prea.html,2022-01-07 15:27:25+00:00,2022-01-07 15:27:25+00:00,Columbia,NJ,WARREN,40.924606,-75.067825,285,189.04166666666666
10003987,WARREN COUNTY CORRECTIONAL CENTER,175 COUNTY ROUTE 519 S,BELVIDERE,NJ,07823,40.80247120670455,-75.08087059189337,COUNTY,MAXIMUM,176.0,OPEN,http://www.co.warren.nj.us/WC%20Corrections/correction-center/Index.html,2022-01-07 15:27:25+00:00,2022-01-07 15:27:25+00:00,Columbia,NJ,WARREN,40.924606,-75.067825,285,189.04166666666666
10003983,KEOGH DWYER CORRECTIONAL FACILITY,41 HIGH ST,NEWTON,NJ,07860,41.05890835242875,-74.75491643931811,COUNTY,NOT AVAILABLE,225.0,OPEN,http://www.sussexcountysheriff.com/corrections/inmate_visitation/,2022-01-07 15:27:25+00:00,2022-01-07 15:27:25+00:00,Columbia,NJ,WARREN,40.924606,-75.067825,285,189.04166666666666
10006609,WARREN RESIDENTIAL COMMUNITY HOME,509 BRASS CASTLE ROAD,OXFORD,NJ,07863,40.782948562661105,-75.02798513950698,STATE,JUVENILE,30.0,OPEN,http://www.nj.gov/oag/jjc/prea.html,2022-01-07 15:27:25+00:00,2022-01-07 15:27:25+00:00,Columbia,NJ,WARREN,40.924606,-75.067825,285,189.04166666666666
10003113,ALTERNATIVE & SPECIAL DETENTION CENTER(ASD),8101 STATE RD,PHILADELPHIA,PA,19136,40.02980240647328,-75.01597637886955,LOCAL,MINIMUM,860.0,OPEN,"http://www.cor.pa.gov/Facilities/CountyPrisons/Pages/Inspection-Schedule,-Statistics-And-General-Info.aspx, http://www.cor.pa.gov/Facilities/CountyPrisons/Pages/County-Prison-Contact-Info.aspx",2022-01-07 15:27:25+00:00,2022-01-07 15:27:25+00:00,TOR,PA,PHILADELPHIA,40.054171,-74.985166,501,278.125
10003114,PHILADELPHIA DETENTION CENTER,8201 STATE RD,PHILADELPHIA,PA,19136,40.03306383671403,-75.01532460155447,LOCAL,MINIMUM,1677.0,OPEN,"http://www.phila.gov/PRISONS/Pages/default.aspx, http://www.cor.pa.gov/Facilities/CountyPrisons/Pages/County-Prison-Contact-Info.aspx",2022-01-07 15:27:25+00:00,2022-01-07 15:27:25+00:00,TOR,PA,PHILADELPHIA,40.054171,-74.985166,501,278.125
10004005,ALBERT C WAGNER YOUTH CORRECTIONAL FACILITY,500 WARD AVE,CHESTERFIELD,NJ,08515,40.159583169874445,-74.669522781185,STATE,JUVENILE,1032.0,OPEN,"http://www.state.nj.us/corrections/pages/offender_stats.html, http://www.state.nj.us/treasury/omb/publications/12budget/pdf/26.pdf",2022-01-07 15:27:25+00:00,2022-01-07 15:27:25+00:00,TOR,PA,PHILADELPHIA,40.054171,-74.985166,501,278.125
10004002,CRAF JONES FARM,721 BEAR TAVERN RD,TRENTON,NJ,08628,40.27464489217101,-74.82931384578082,STATE,MINIMUM,-999.0,OPEN,http://www.state.nj.us/corrections/pages/offender_stats.html,2022-01-07 15:27:25+00:00,2022-01-07 15:27:25+00:00,TOR,PA,PHILADELPHIA,40.054171,-74.985166,501,278.125
10004004,GARDEN STATE YOUTH CORRECTIONAL FACILITY,55 HOGBACK RD,CROSSWICKS,NJ,08515,40.15916830090083,-74.67634385752422,STATE,JUVENILE,1168.0,OPEN,"http://www.state.nj.us/corrections/pages/offender_stats.html, http://www.state.nj.us/treasury/omb/publications/12budget/pdf/26.pdf",2022-01-07 15:27:25+00:00,2022-01-07 15:27:25+00:00,TOR,PA,PHILADELPHIA,40.054171,-74.985166,501,278.125
10001516,MID-STATE CORRECTIONAL FACILITY,866 RANGE RD,WRIGHTSTOWN,NJ,08562,39.9985635774665,-74.58339290430632,STATE,MEDIUM,696.0,OPEN,http://www.state.nj.us/corrections/pages/index.shtml,2022-01-07 15:27:25+00:00,2022-01-07 15:27:25+00:00,TOR,PA,PHILADELPHIA,40.054171,-74.985166,501,278.125
10004003,NEW JERSEY STATE PRISON,600 CASS ST,TRENTON,NJ,08608,40.207273357049374,-74.75636872092731,STATE,MAXIMUM,1819.0,OPEN,"http://www.state.nj.us/corrections/pages/offender_stats.html, http://www.state.nj.us/treasury/omb/publications/12budget/pdf/26.pdf",2022-01-07 15:27:25+00:00,2022-01-07 15:27:25+00:00,TOR,PA,PHILADELPHIA,40.054171,-74.985166,501,278.125
10004006,JOHNSTONE JUVENILE MEDIUM SECURITY FACILITY,"BURLINGTON ST, P.O. BOX 307",BORDENTOWN,NJ,08505,40.136752443439036,-74.72224779341217,STATE,JUVENILE,262.0,OPEN,http://www.nj.gov/oag/jjc/secure_johnstone.htm,2022-01-07 15:27:25+00:00,2022-01-07 15:27:25+00:00,TOR,PA,PHILADELPHIA,40.054171,-74.985166,501,278.125
10004007,JOHNSTONE JUVENILE FEMALE SECURE CARE AND INTAKE FACILITY,"BURLINGTON ST, P.O. BOX 367",BORDENTOWN,NJ,08505,40.14290041574226,-74.72158243772893,STATE,JUVENILE,48.0,OPEN,http://www.nj.gov/oag/jjc/secure_johnstone.htm,2022-01-07 15:27:25+00:00,2022-01-07 15:27:25+00:00,TOR,PA,PHILADELPHIA,40.054171,-74.985166,501,278.125
10006598,ANN KLEIN FORENSIC CENTER,STUYVESANT AVENUE,WEST TRENTON,NJ,08628,40.247050628731934,-74.80188507357187,STATE,NOT AVAILABLE,200.0,OPEN,"http://www.state.nj.us/humanservices/dmhas/resources/services/treatment/mh_hospitals.html, http://www.state.nj.us/humanservices/dmhas/resources/services/treatment/akfc_census.html",2022-01-07 15:27:25+00:00,2022-01-07 15:27:25+00:00,TOR,PA,PHILADELPHIA,40.054171,-74.985166,501,278.125
10006600,ALBERT ELIAS RESIDENTIAL COMMUNITY HOME,479 WEST BURLINGTON STREET,BORDENTOWN,NJ,08505,40.14262989915668,-74.72362369148465,STATE,JUVENILE,25.0,OPEN,http://www.nj.gov/oag/jjc/prea.html,2022-01-07 15:27:25+00:00,2022-01-07 15:27:25+00:00,TOR,PA,PHILADELPHIA,40.054171,-74.985166,501,278.125
10004008,FCI FORT DIX CAMP,5756 HARTFORD & POINTVILE RD,FORT DIX,NJ,08640,40.00020682770673,-74.61804127103426,FEDERAL,MINIMUM,334.0,OPEN,https://www.bop.gov/locations/institutions/ftd/,2022-01-07 15:27:25+00:00,2022-01-07 15:27:25+00:00,TOR,PA,PHILADELPHIA,40.054171,-74.985166,501,278.125
10002301,CENTRAL RECEPTION AND ASSIGNMENT FACILITY,2401 STUYVESANT AVENUE,TRENTON,NJ,08628,40.24759593410707,-74.80452606575415,STATE,MAXIMUM,691.0,OPEN,"http://www.state.nj.us/corrections/pages/offender_stats.html, http://www.state.nj.us/treasury/omb/publications/12budget/pdf/26.pdf",2022-01-07 15:27:25+00:00,2022-01-07 15:27:25+00:00,TOR,PA,PHILADELPHIA,40.054171,-74.985166,501,278.125
10002304,BURLINGTON COUNTY DETENTION CENTER,54 GRANT ST,MOUNT HOLLY,NJ,08060,39.996071499082454,-74.7909177596235,COUNTY,NOT AVAILABLE,625.0,OPEN,http://www.co.burlington.nj.us/468/Corrections---Jail,2022-01-07 15:27:25+00:00,2022-01-07 15:27:25+00:00,TOR,PA,PHILADELPHIA,40.054171,-74.985166,501,278.125
10000770,FCI FORT DIX,5756 HARTFORD & POINTVILE RD,FORT DIX,NJ,08640,39.9996303758186,-74.61453839872105,FEDERAL,MINIMUM,4041.0,OPEN,https://www.bop.gov/locations/institutions/ftd/,2022-01-07 15:27:25+00:00,2022-01-07 15:27:25+00:00,TOR,PA,PHILADELPHIA,40.054171,-74.985166,501,278.125
10004009,BURLINGTON COUNTY JUVENILE DETENTION CENTER,620 PEMBERTON-BROWNS MILLS RD,PEMBERTON,NJ,08068,39.968535787671804,-74.64043080582933,COUNTY,JUVENILE,-999.0,OPEN,http://www.co.burlington.nj.us/458/Juvenile-Detention-Center,2022-01-07 15:27:25+00:00,2022-01-07 15:27:25+00:00,TOR,PA,PHILADELPHIA,40.054171,-74.985166,501,278.125
10002300,TRENTON PSYCHIATRIC HOSPITAL,100 SULLIVAN WAY,WEST TRENTON,NJ,08628,40.2438627420442,-74.80587737104116,STATE,NOT AVAILABLE,400.0,OPEN,"http://www.state.nj.us/humanservices/dmhas/resources/services/treatment/mh_hospitals.html, http://www.state.nj.us/humanservices/dmhas/resources/services/treatment/tph_census.html",2022-01-07 15:27:25+00:00,2022-01-07 15:27:25+00:00,TOR,PA,PHILADELPHIA,40.054171,-74.985166,501,278.125
10003110,CURRAN- FROMHOLD CORRECTIONAL FACILITY (CFCF),7901 STATE RD,PHILADELPHIA,PA,19136,40.0297228424366,-75.01975607203867,LOCAL,CLOSE,2560.0,OPEN,"http://www.phila.gov/PRISONS/Pages/default.aspx, http://www.cor.pa.gov/Facilities/CountyPrisons/Pages/County-Prison-Contact-Info.aspx",2022-01-07 15:27:25+00:00,2022-01-07 15:27:25+00:00,TOR,PA,PHILADELPHIA,40.054171,-74.985166,501,278.125
10004000,MERCER COUNTY CORRECTIONAL CENTER,1750 ROUTE 29,LAMBERTVILLE,NJ,08530,40.32917521398056,-74.91925666596686,COUNTY,MAXIMUM,880.0,OPEN,http://www.mercercounty.org/departments/corrections,2022-01-07 15:27:25+00:00,2022-01-07 15:27:25+00:00,TOR,PA,PHILADELPHIA,40.054171,-74.985166,501,278.125
10003112,RIVERSIDE CORRECTIONAL FACILITY,8151 STATE ROAD,PHILADELPHIA,PA,19136,40.02934750069899,-75.01708520957357,LOCAL,CLOSE,824.0,OPEN,"http://www.phila.gov/PRISONS/Pages/default.aspx, http://www.cor.pa.gov/Facilities/CountyPrisons/Pages/County-Prison-Contact-Info.aspx",2022-01-07 15:27:25+00:00,2022-01-07 15:27:25+00:00,TOR,PA,PHILADELPHIA,40.054171,-74.985166,501,278.125
10003115,PHILADELPHIA INDUSTRIAL CORRECTIONAL CENTER,8301 STATE RD,PHILADELPHIA,PA,19136,40.034678825699714,-75.01356579010078,LOCAL,CLOSE,1230.0,OPEN,"http://www.phila.gov/PRISONS/Pages/default.aspx, http://www.cor.pa.gov/Facilities/CountyPrisons/Pages/County-Prison-Contact-Info.aspx",2022-01-07 15:27:25+00:00,2022-01-07 15:27:25+00:00,TOR,PA,PHILADELPHIA,40.054171,-74.985166,501,278.125
10006188,PHILADELPHIA JUVENILE JUSTICE SERVICES CENTER,91 N 48TH ST,PHILADELPHIA,PA,19139,39.961450241729295,-75.21569115950228,COUNTY,JUVENILE,150.0,OPEN,"https://beta.phila.gov/departments/department-of-human-services/youth-justice/, http://www.philly.com/philly/blogs/cityhall/Goodbye-Youth-Study-Center-Ribbon-cut-at-new-West-Philly-juvenile-detention-center.html",2022-01-07 15:27:25+00:00,2022-01-07 15:27:25+00:00,RIT,PA,PHILADELPHIA,39.922516,-75.186783,410,233.83333333333334
10002305,BAYSIDE STATE PRISON - ANCORA,301 SPRING GARDEN RD,HAMMONDTON,NJ,08037,39.68151637176472,-74.86546267711621,STATE,MINIMUM,250.0,OPEN,"http://www.state.nj.us/corrections/pages/offender_stats.html, http://www.nj.com/politics/index.ssf/2017/02/christie_will_shut_down_250-inmate_nj_prison_unit.html",2022-01-07 15:27:25+00:00,2022-01-07 15:27:25+00:00,RIT,PA,PHILADELPHIA,39.922516,-75.186783,410,233.83333333333334
10002307,CAMDEN COUNTY YOUTH CENTER,8 S WOODBURY TURNERSVILLE RD,BLACKWOOD,NJ,08012,39.78408865512963,-75.06688021184345,COUNTY,JUVENILE,77.0,OPEN,http://www.camdencounty.com/service/corrections/juvenile-detention-center/,2022-01-07 15:27:25+00:00,2022-01-07 15:27:25+00:00,RIT,PA,PHILADELPHIA,39.922516,-75.186783,410,233.83333333333334
10006599,ANCORA PSYCHIATRIC HOSPITAL - HOLLY HALL,301 SPRING GARDEN ROAD,HAMMONTON,NJ,08037,39.68016486177311,-74.8633383091414,STATE,NOT AVAILABLE,111.0,OPEN,http://www.state.nj.us/humanservices/dmhas/resources/services/treatment/aph_contact.html#4,2022-01-07 15:27:25+00:00,2022-01-07 15:27:25+00:00,RIT,PA,PHILADELPHIA,39.922516,-75.186783,410,233.83333333333334
10003088,WESTMORELAND COUNTY PRISON,3000 S GRANDE BLVD,GREENSBURG,PA,15601,40.27343900032906,-79.56089751708022,COUNTY,NOT AVAILABLE,704.0,OPEN,"http://www.cor.pa.gov/Facilities/CountyPrisons/Pages/Inspection-Schedule,-Statistics-And-General-Info.aspx, http://www.cor.pa.gov/Facilities/CountyPrisons/Pages/County-Prison-Contact-Info.aspx",2022-01-07 15:27:25+00:00,2022-01-07 15:27:25+00:00,Liberty (SAHS),PA,ALLEGHENY,40.323898,-79.868301,150,80.04166666666667
10005230,WESTMORELAND COUNTY REGIONAL YOUTH SERVICES CENTER,2771 S GRANDE BLVD,GREENSBURG,PA,15601,40.27323777757606,-79.55933495310482,COUNTY,JUVENILE,24.0,OPEN,https://www.co.westmoreland.pa.us/789/Juvenile-DetentionShelter,2022-01-07 15:27:25+00:00,2022-01-07 15:27:25+00:00,Liberty (SAHS),PA,ALLEGHENY,40.323898,-79.868301,150,80.04166666666667
10005236,YORK COUNTY YOUTH DEVELOPMENT CENTER,3564 HEINDEL RD,YORK,PA,17402,39.987983088690065,-76.65587765147504,COUNTY,JUVENILE,24.0,OPEN,"https://yorkcountypa.gov/county-human-services/youth-development-center.html, http://www.jdcap.org/SiteCollectionDocuments/JDCAP%20Directory201008.pdf",2022-01-07 15:27:25+00:00,2022-01-07 15:27:25+00:00,York,PA,YORK,39.9653,-76.6994,271,184.95833333333334
10001494,YORK COUNTY PRISON,3400 CONCORD RD,YORK,PA,17402,39.98648496856252,-76.66131226005393,COUNTY,MAXIMUM,2676.0,OPEN,https://yorkcountypa.gov/courts-criminal-justice/prison.html,2022-01-07 15:27:25+00:00,2022-01-07 15:27:25+00:00,York,PA,YORK,39.9653,-76.6994,271,184.95833333333334
10006375,YORK CCC,317 WEST MARKET STREET,YORK,PA,17401,39.96031315082488,-76.73540313070718,STATE,MINIMUM,-999.0,OPEN,"https://www.cor.pa.gov/Facilities/CommunityCorrections/Documents/Region%202.pdf, http://www.cor.pa.gov/Facilities/CommunityCorrections/Documents/What%20is%20Community%20Corrections.pdf",2022-01-07 15:27:25+00:00,2022-01-07 15:27:25+00:00,York,PA,YORK,39.9653,-76.6994,271,184.95833333333334
10006365,PHILADELPHIA CCC #4,1628-1630 NORTH 15TH STREET,PHILADELPHIA,PA,19121,39.97854177349213,-75.15989189369422,STATE,MINIMUM,-999.0,OPEN,"https://secure.ssa.gov/poms.nsf/lnx/0500520009PHI, https://www.cor.pa.gov/Facilities/CommunityCorrections/Documents/Region%201.pdf",2022-01-07 15:27:25+00:00,2022-01-07 15:27:25+00:00,FAB,PA,PHILADELPHIA,39.9603,-75.1424,453,246.75
10006373,DIAGNOSTIC AND REHABILITATION CENTER,3200 HENRY AVENUE,PHILADELPHIA,PA,19129,40.00923805719254,-75.1816509042778,STATE,MINIMUM,-999.0,OPEN,https://www.gaudenzia.org/locations/,2022-01-07 15:27:25+00:00,2022-01-07 15:27:25+00:00,FAB,PA,PHILADELPHIA,39.9603,-75.1424,453,246.75
10006364,PHILADELPHIA CCC #2,407 NORTH 8TH STREET,PHILADELPHIA,PA,19123,39.958899097898296,-75.1516339965306,STATE,MINIMUM,-999.0,OPEN,"https://secure.ssa.gov/poms.nsf/lnx/0500520009PHI, https://www.cor.pa.gov/Facilities/CommunityCorrections/Documents/Region%201.pdf",2022-01-07 15:27:25+00:00,2022-01-07 15:27:25+00:00,FAB,PA,PHILADELPHIA,39.9603,-75.1424,453,246.75
10002306,CAMDEN COUNTY CORRECTIONAL FACILITY,330 FEDERAL ST,CAMDEN,NJ,08101,39.94355355228193,-75.12342667525111,COUNTY,NOT AVAILABLE,1273.0,OPEN,http://www.camdendoc.com/,2022-01-07 15:27:25+00:00,2022-01-07 15:27:25+00:00,FAB,PA,PHILADELPHIA,39.9603,-75.1424,453,246.75
10003116,FDC PHILADELPHIA,700 ARCH ST,PHILADELPHIA,PA,19106,39.95258147762492,-75.1520314280168,FEDERAL,MAXIMUM,740.0,OPEN,http://www.bop.gov/about/statistics/population_statistics.jsp,2022-01-07 15:27:25+00:00,2022-01-07 15:27:25+00:00,FAB,PA,PHILADELPHIA,39.9603,-75.1424,453,246.75
10006833,UNION COUNTY JUVENILE DETENTION CENTER,1075 EDWARD STREET,LINDEN,NJ,07036,40.61058900585681,-74.25363962957182,COUNTY,JUVENILE,-999.0,OPEN,https://ucnj.org/department-of-corrections/juvenile-detention-center/,2022-01-07 15:27:25+00:00,2022-01-07 15:27:25+00:00,Rahway PM,NJ,UNION,40.603943,-74.276176,352,212.625
10002298,ADULT DIAGNOSTIC AND TREATMENT CENTER,"8 PRODUCTION WAY, P.O. BOX 190",WOODBRIDGE,NJ,07095,40.58959312488446,-74.27158103647184,STATE,NOT AVAILABLE,512.0,OPEN,"http://www.state.nj.us/corrections/pages/offender_stats.html, http://www.state.nj.us/treasury/omb/publications/12budget/pdf/26.pdf",2022-01-07 15:27:25+00:00,2022-01-07 15:27:25+00:00,Rahway PM,NJ,UNION,40.603943,-74.276176,352,212.625
10003996,EAST JERSEY STATE PRISON,1100 WOODBRIDGE RD,RAHWAY,NJ,07065,40.590564024132924,-74.26959748257694,STATE,MAXIMUM,1227.0,OPEN,"http://www.state.nj.us/corrections/pages/offender_stats.html, http://www.state.nj.us/treasury/omb/publications/12budget/pdf/26.pdf",2022-01-07 15:27:25+00:00,2022-01-07 15:27:25+00:00,Rahway PM,NJ,UNION,40.603943,-74.276176,352,212.625
10001515,NEW JERSEY TRAINING SCHOOL,"GRACE HILL ROAD, P.O. BOX 500",MONROE TOWNSHIP,NJ,08831,40.34246131616155,-74.39847855782696,STATE,JUVENILE,200.0,OPEN,http://www.nj.gov/oag/jjc/secure_njts.htm,2022-01-07 15:27:25+00:00,2022-01-07 15:27:25+00:00,Rahway PM,NJ,UNION,40.603943,-74.276176,352,212.625
10003994,SOMERSET COUNTY JAIL,40 GROVE ST,SOMERVILLE,NJ,08876,40.56874334391081,-74.6091295117278,COUNTY,MAXIMUM,440.0,OPEN,https://www.co.somerset.nj.us/government/elected-officials/sheriff-s-office/corrections-division,2022-01-07 15:27:25+00:00,2022-01-07 15:27:25+00:00,Rahway PM,NJ,UNION,40.603943,-74.276176,352,212.625
10003998,MIDDLESEX COUNTY ADULT CORRECTION CENTER,ROUTE 130 AND APPLE ORCHARD LANE,NORTH BRUNSWICK,NJ,08902,40.42061842593093,-74.48919929419147,COUNTY,NOT AVAILABLE,1436.0,OPEN,http://www.middlesexcountynj.gov/Government/Departments/PSH/Pages/adultcorrections_home.aspx,2022-01-07 15:27:25+00:00,2022-01-07 15:27:25+00:00,Rahway PM,NJ,UNION,40.603943,-74.276176,352,212.625
10003997,MIDDLESEX COUNTY JUVENILE DETENTION CENTER,APPLE ORCHARD LANE,NORTH BRUNSWICK,NJ,08902,40.42859075495154,-74.48926057339622,COUNTY,JUVENILE,100.0,OPEN,http://www.middlesexcountynj.gov/Government/Departments/PSH/Pages/juvenile-detention.aspx,2022-01-07 15:27:25+00:00,2022-01-07 15:27:25+00:00,Rahway PM,NJ,UNION,40.603943,-74.276176,352,212.625
10002299,MONMOUTH COUNTY CORRECTIONAL INSTITUTION,1 WATERWORKS RD,FREEHOLD,NJ,07728,40.26777675717787,-74.28686151099151,COUNTY,MAXIMUM,1328.0,OPEN,http://www.mcsonj.org/divisions/corrections/,2022-01-07 15:27:25+00:00,2022-01-07 15:27:25+00:00,Rahway PM,NJ,UNION,40.603943,-74.276176,352,212.625
10002296,MORRIS COUNTY CORRECTIONAL FACILITY,43 JOHN ST,MORRISTOWN,NJ,07960,40.80348090069923,-74.46061302117326,COUNTY,MAXIMUM,524.0,OPEN,https://sheriff.morriscountynj.gov/corrections/visitation/,2022-01-07 15:27:25+00:00,2022-01-07 15:27:25+00:00,Rahway PM,NJ,UNION,40.603943,-74.276176,352,212.625
10003135,FCI RAY BROOK,128 RAY BROOK RD,RAY BROOK,NY,12977,44.290320027582425,-74.09284982035032,FEDERAL,MEDIUM,749.0,OPEN,https://www.bop.gov/locations/institutions/rbk/,2022-01-07 15:27:25+00:00,2022-01-07 15:27:25+00:00,Whiteface Mtn,NY,ESSEX,44.39308,-73.8589,141,83.125
10003133,ESSEX COUNTY CORRECTIONAL FACILITY,702 STOWERSVILLE RD,LEWIS,NY,12950,44.28209009806413,-73.53668230181343,COUNTY,NOT AVAILABLE,-999.0,OPEN,http://www.criminaljustice.ny.gov/crimnet/ojsa/jail_pop_y.pdf,2022-01-07 15:27:25+00:00,2022-01-07 15:27:25+00:00,Whiteface Mtn,NY,ESSEX,44.39308,-73.8589,141,83.125
10003128,CLINTON CORRECTIONAL FACILITY - ANNEX,1074 RT. 374,DANNEMORA,NY,12929,44.7248493215263,-73.7171129186466,STATE,MAXIMUM,828.0,OPEN,https://doccs.ny.gov/location/clinton-annex,2022-01-07 15:27:25+00:00,2022-01-07 15:27:25+00:00,Whiteface Mtn,NY,ESSEX,44.39308,-73.8589,141,83.125
10003127,CLINTON CORRECTIONAL FACILITY - MAIN,1156 RT. 374,DANNEMORA,NY,12929,44.72355586308686,-73.72131851813366,STATE,MAXIMUM,2852.0,OPEN,https://doccs.ny.gov/location/clinton-correctional-facility,2022-01-07 15:27:25+00:00,2022-01-07 15:27:25+00:00,Whiteface Mtn,NY,ESSEX,44.39308,-73.8589,141,83.125
10003134,ADIRONDACK CORRECTIONAL FACILITY,196 RAY BROOK RD,RAY BROOK,NY,12977,44.29598089166471,-74.09147652083162,STATE,MEDIUM,558.0,OPEN,https://doccs.ny.gov/location/adirondack-adolescent-offender-facility,2022-01-07 15:27:25+00:00,2022-01-07 15:27:25+00:00,Whiteface Mtn,NY,ESSEX,44.39308,-73.8589,141,83.125
10003227,QUEENSBORO CORRECTIONAL FACILITY,47-04 VAN DAM ST,LONG ISLAND CITY,NY,11101,40.742610798118896,-73.93448221160055,STATE,MINIMUM,424.0,OPEN,https://doccs.ny.gov/location/queensboro-correctional-facility,2022-01-07 15:27:25+00:00,2022-01-07 15:27:25+00:00,Bklyn - PS274,NY,KINGS,40.694401,-73.928596,389,231.875
10002295,BROOKLYN DETENTION COMPLEX,275 ATLANTIC AVE,BROOKLYN,NY,11201,40.689176583543905,-73.98966516052627,LOCAL,MAXIMUM,815.0,OPEN,http://ww2.nycourts.gov/COURTS/nyc/criminal/faqs.shtml,2022-01-07 15:27:25+00:00,2022-01-07 15:27:25+00:00,Bklyn - PS274,NY,KINGS,40.694401,-73.928596,389,231.875
10003230,CROSSROADS JUVENILE CENTER,17 BRISTOL ST,BROOKLYN,NY,11212,40.67065495784265,-73.91241313897021,LOCAL,JUVENILE,-999.0,OPEN,https://www1.nyc.gov/site/acs/justice/secure-detention.page,2022-01-07 15:27:25+00:00,2022-01-07 15:27:25+00:00,Bklyn - PS274,NY,KINGS,40.694401,-73.928596,389,231.875
10003229,MDC BROOKLYN,80 29TH ST,BROOKLYN,NY,11232,40.65990922976303,-74.00381848006515,FEDERAL,MAXIMUM,1878.0,OPEN,https://www.bop.gov/locations/institutions/bro/,2022-01-07 15:27:25+00:00,2022-01-07 15:27:25+00:00,Bklyn - PS274,NY,KINGS,40.694401,-73.928596,389,231.875
10006620,ELLA MCQUEEN RECEPTION CENTER FOR BOYS AND GIRLS,41 HOWARD AVENUE,BROOKLYN,NY,11221,40.68704125354735,-73.92056523069687,STATE,JUVENILE,33.0,OPEN,https://ocfs.ny.gov/programs/youth/detention/assets/docs/SD-SSDcontactinfo.pdf,2022-01-07 15:27:25+00:00,2022-01-07 15:27:25+00:00,Bklyn - PS274,NY,KINGS,40.694401,-73.928596,389,231.875
10002294,BROOKLYN COMMUNITY CORRECTIONAL CENTER,988 MYRTLE AVE,BROOKLYN,NY,11206,40.69602395327428,-73.94177914977688,STATE,MINIMUM,-999.0,OPEN,http://www.samaritanvillage.org/where-good-lives,2022-01-07 15:27:25+00:00,2022-01-07 15:27:25+00:00,Bklyn - PS274,NY,KINGS,40.694401,-73.928596,389,231.875
10005821,CATHOLIC GUARDIAN SOCIETY,3402 CLARENDON ROAD,BROOKLYN,NY,11203,40.643239379643916,-73.94471634553963,LOCAL,NOT AVAILABLE,-999.0,OPEN,https://www.catholicguardian.org/contact-info/,2022-01-07 15:27:25+00:00,2022-01-07 15:27:25+00:00,Bklyn - PS274,NY,KINGS,40.694401,-73.928596,389,231.875
10003990,NORTHERN STATE PRISON,168 FRONTAGE RD,NEWARK,NJ,07114,40.71279181441772,-74.17351793218819,STATE,MEDIUM,1530.0,OPEN,"http://www.state.nj.us/corrections/pages/offender_stats.html, http://www.state.nj.us/treasury/omb/publications/12budget/pdf/26.pdf",2022-01-07 15:27:25+00:00,2022-01-07 15:27:25+00:00,Port Richmond,NY,RICHMOND,40.63306,-74.137156,299,183.54166666666666
10001513,UNION COUNTY JAIL,15 ELIZABETHTOWN PLAZA,ELIZABETH,NJ,07207,40.662629665721155,-74.21709501635738,COUNTY,MAXIMUM,1048.0,OPEN,https://ucnj.org/department-of-corrections/,2022-01-07 15:27:25+00:00,2022-01-07 15:27:25+00:00,Port Richmond,NY,RICHMOND,40.63306,-74.137156,299,183.54166666666666
10003995,ELIZABETH DETENTION CENTER,625 EVANS ST,ELIZABETH,NJ,07201,40.666156706129584,-74.18969117554099,FEDERAL,MINIMUM,300.0,OPEN,https://www.ice.gov/detention-facility/elizabeth-contract-detention-facility,2022-01-07 15:27:25+00:00,2022-01-07 15:27:25+00:00,Port Richmond,NY,RICHMOND,40.63306,-74.137156,299,183.54166666666666
10001509,STATEN ISLAND RESIDENTIAL CENTER,1133 FOREST HILL RD,STATEN ISLAND,NY,10314,40.59352092414405,-74.14308654216212,LOCAL,JUVENILE,25.0,OPEN,https://ocfs.ny.gov/main/rehab/regionalListing1.asp,2022-01-07 15:27:25+00:00,2022-01-07 15:27:25+00:00,Port Richmond,NY,RICHMOND,40.63306,-74.137156,299,183.54166666666666
10003210,WOODFIELD SECURE COTTAGE,20 HAMMOND HOUSE RD,VALHALLA,NY,10595,41.08307946540856,-73.8126424806615,STATE,JUVENILE,24.0,OPEN,https://www.facebook.com/pages/Woodfield-Detention-Cottage/559986610825631,2022-01-07 15:27:25+00:00,2022-01-07 15:27:25+00:00,Rockland Cty,NY,ROCKLAND,41.182079,-74.028191,245,188.29166666666666
10003205,ORANGE COUNTY JAIL,110 WELLS FARM RD,GOSHEN,NY,10924,41.405146172466154,-74.35900469695603,COUNTY,NOT AVAILABLE,-999.0,OPEN,https://www.orangecountygov.com/511/Corrections-Jail,2022-01-07 15:27:25+00:00,2022-01-07 15:27:25+00:00,Rockland Cty,NY,ROCKLAND,41.182079,-74.028191,245,188.29166666666666
10003199,DOWNSTATE CORRECTIONAL FACILITY,121 RED SCHOOLHOUSE ROAD,FISHKILL,NY,12524,41.53235272227867,-73.9455343959898,STATE,MAXIMUM,-999.0,OPEN,https://doccs.ny.gov/location/downstate-correctional-facility,2022-01-07 15:27:25+00:00,2022-01-07 15:27:25+00:00,Rockland Cty,NY,ROCKLAND,41.182079,-74.028191,245,188.29166666666666
10003198,FISHKILL CORRECTIONAL FACILITY,18 STRACK DRIVE,BEACON,NY,12508,41.523155893131495,-73.95039689137576,STATE,MEDIUM,1840.0,OPEN,https://doccs.ny.gov/location/fishkill-correctional-facility,2022-01-07 15:27:25+00:00,2022-01-07 15:27:25+00:00,Rockland Cty,NY,ROCKLAND,41.182079,-74.028191,245,188.29166666666666
10005804,CLEARVIEW NSD / SCHOLES NSD,1 ECHO HILL,DOBBS FERRY,NY,10522,41.00427439932117,-73.86342263114547,COUNTY,JUVENILE,12.0,OPEN,http://www.ocfs.state.ny.us/main/publications/Pub1160%20Facility%20Directory%20of%20Juvenile%20Detention%20Facilities.pdf,2022-01-07 15:27:25+00:00,2022-01-07 15:27:25+00:00,Rockland Cty,NY,ROCKLAND,41.182079,-74.028191,245,188.29166666666666
10006603,GREEN RESIDENTIAL COMMUNITY HOME,1311 SLOATSBURG RD,RINGWOOD,NJ,07456,41.13374053197191,-74.26018007833817,STATE,JUVENILE,28.0,OPEN,http://www.nj.gov/oag/jjc/residential_community_list.html,2022-01-07 15:27:25+00:00,2022-01-07 15:27:25+00:00,Rockland Cty,NY,ROCKLAND,41.182079,-74.028191,245,188.29166666666666
10003211,ROCKLAND COUNTY CORRECTIONAL CENTER,51 NEW HEMPSTEAD RD,NEW CITY,NY,10956,41.14656193575475,-73.99353024272455,COUNTY,NOT AVAILABLE,-999.0,OPEN,http://www.rocklandcountysheriffoffice.com/corrections_accred.html,2022-01-07 15:27:25+00:00,2022-01-07 15:27:25+00:00,Rockland Cty,NY,ROCKLAND,41.182079,-74.028191,245,188.29166666666666
10000766,WESTCHESTER COUNTY DEPARTMENT OF CORRECTION,10 WOOD RD,VALHALLA,NY,10595,41.07838975623135,-73.80500213081832,COUNTY,MAXIMUM,1821.0,OPEN,https://correction.westchestergov.com/,2022-01-07 15:27:25+00:00,2022-01-07 15:27:25+00:00,Rockland Cty,NY,ROCKLAND,41.182079,-74.028191,245,188.29166666666666
10003209,SING SING CORRECTIONAL FACILITY,354 HUNTER ST,OSSINING,NY,10562,41.15113207188909,-73.86839616521404,STATE,MAXIMUM,1747.0,OPEN,https://doccs.ny.gov/location/sing-sing-correctional-facility,2022-01-07 15:27:25+00:00,2022-01-07 15:27:25+00:00,Rockland Cty,NY,ROCKLAND,41.182079,-74.028191,245,188.29166666666666
10000765,GOSHEN SECURE CENTER,97 CROSS RD,GOSHEN,NY,10924,41.36559646710111,-74.38619499951604,STATE,JUVENILE,85.0,OPEN,https://ocfs.ny.gov/programs/youth/detention/assets/docs/SD-SSDcontactinfo.pdf,2022-01-07 15:27:25+00:00,2022-01-07 15:27:25+00:00,Rockland Cty,NY,ROCKLAND,41.182079,-74.028191,245,188.29166666666666
10003162,ERIE COUNTY JUVENILE DETENTION CENTER,810 E FERRY ST,BUFFALO,NY,14211,42.91563325218769,-78.83536543071885,COUNTY,JUVENILE,64.0,OPEN,http://www2.erie.gov/youthservices/index.php?q=detention,2022-01-07 15:27:25+00:00,2022-01-07 15:27:25+00:00,Buffalo,NY,ERIE,42.8781,-78.8094,241,167.58333333333334
10003165,WENDE CORRECTIONAL FACILITY,3040 WENDE RD,ALDEN,NY,14004,42.93100121373399,-78.54254232061162,STATE,MAXIMUM,919.0,OPEN,https://doccs.ny.gov/location/wende-correctional-facility,2022-01-07 15:27:25+00:00,2022-01-07 15:27:25+00:00,Buffalo,NY,ERIE,42.8781,-78.8094,241,167.58333333333334
10001501,ERIE COUNTY HOLDING CENTER,40 DELAWARE AVE,BUFFALO,NY,14202,42.884385087411744,-78.87932197533884,COUNTY,MAXIMUM,638.0,OPEN,http://www2.erie.gov/sheriff/index.php?q=jail-management-division,2022-01-07 15:27:25+00:00,2022-01-07 15:27:25+00:00,Buffalo,NY,ERIE,42.8781,-78.8094,241,167.58333333333334
10003232,MANHATTAN DETENTION COMPLEX,125 WHITE ST,NEW YORK,NY,10013,40.716536681273354,-74.00042187030904,LOCAL,NOT AVAILABLE,881.0,OPEN,https://www1.nyc.gov/site/doc/about/facilities-locations.page,2022-01-07 15:27:25+00:00,2022-01-07 15:27:25+00:00,Jersey City FH,NJ,HUDSON,40.725452,-74.052292,268,179.25
10003235,MCC NEW YORK,150 PARK ROW,NEW YORK,NY,10007,40.71320853136698,-74.00156284974214,FEDERAL,MAXIMUM,474.0,OPEN,https://www.bop.gov/locations/institutions/nym/,2022-01-07 15:27:25+00:00,2022-01-07 15:27:25+00:00,Jersey City FH,NJ,HUDSON,40.725452,-74.052292,268,179.25
10003989,ESSEX COUNTY CORRECTIONAL FACILITY,354 DOREMUS AVE,NEWARK,NJ,07105,40.7212163772004,-74.12731035045356,COUNTY,NOT AVAILABLE,2434.0,OPEN,https://essexcountynj.org/corrections/,2022-01-07 15:27:25+00:00,2022-01-07 15:27:25+00:00,Jersey City FH,NJ,HUDSON,40.725452,-74.052292,268,179.25
10002297,HUDSON COUNTY CORRECTIONAL CENTER,30 HACKENSACK AVE,KEARNY,NJ,07032,40.72788384754883,-74.10800679334659,COUNTY,NOT AVAILABLE,2080.0,OPEN,http://www.hudsoncountynj.org/visiting-the-hudson-county-correctional-center/,2022-01-07 15:27:25+00:00,2022-01-07 15:27:25+00:00,Jersey City FH,NJ,HUDSON,40.725452,-74.052292,268,179.25
10001511,ESSEX COUNTY YOUTH DETENTION CENTER,80 DURYEA ST,NEWARK,NJ,07103,40.74774914225729,-74.18524335991884,COUNTY,JUVENILE,242.0,OPEN,https://essexcountynj.org/youth-services/,2022-01-07 15:27:25+00:00,2022-01-07 15:27:25+00:00,Jersey City FH,NJ,HUDSON,40.725452,-74.052292,268,179.25
10003988,ESSEX COUNTY-DELANEY HALL DETENTION FACILITY,451 DOREMUS AVE,NEWARK,NJ,07105,40.718072252289204,-74.12868587911129,COUNTY,NOT AVAILABLE,1200.0,OPEN,https://www.ice.gov/detention-facility/delaney-hall-detention-facility,2022-01-07 15:27:25+00:00,2022-01-07 15:27:25+00:00,Jersey City FH,NJ,HUDSON,40.725452,-74.052292,268,179.25
10003183,STEUBEN COUNTY JAIL,7007 RUMSEY ST EXTENSION,BATH,NY,14810,42.34988843485257,-77.29600583019177,COUNTY,NOT AVAILABLE,262.0,OPEN,https://www.steubencony.org/pages.asp?PID=2811,2022-01-07 15:27:25+00:00,2022-01-07 15:27:25+00:00,Pinnacle State Park,NY,STEUBEN,42.0972,-77.2103,490,240.75
10003192,ELMIRA CORRECTIONAL FACILITY,1879 DAVIS ST,ELMIRA,NY,14901,42.11483771875676,-76.83129164323047,STATE,MAXIMUM,1856.0,OPEN,https://doccs.ny.gov/location/elmira-correctional-facility,2022-01-07 15:27:25+00:00,2022-01-07 15:27:25+00:00,Pinnacle State Park,NY,STEUBEN,42.0972,-77.2103,490,240.75
10003193,SOUTHPORT CORRECTIONAL FACILITY,236 BOB MASIA DR,PINE CITY,NY,14871,42.05072657995602,-76.79602210693692,STATE,MAXIMUM,945.0,OPEN,https://doccs.ny.gov/location/southport-correctional-facility,2022-01-07 15:27:25+00:00,2022-01-07 15:27:25+00:00,Pinnacle State Park,NY,STEUBEN,42.0972,-77.2103,490,240.75
10001503,CHEMUNG COUNTY CORRECTIONAL FACILITY,211 WILLIAM ST,ELMIRA,NY,14901,42.09120828455105,-76.80140558667158,COUNTY,MAXIMUM,262.0,OPEN,http://www.chemungsheriff.net/index.asp?pageId=266,2022-01-07 15:27:25+00:00,2022-01-07 15:27:25+00:00,Pinnacle State Park,NY,STEUBEN,42.0972,-77.2103,490,240.75
10003045,TIOGA COUNTY PRISON,1768 SHUMWAY HILL RD,WELLSBORO,PA,16901,41.73879700703054,-77.26847053124237,COUNTY,NOT AVAILABLE,141.0,OPEN,"http://www.cor.pa.gov/Facilities/CountyPrisons/Pages/Inspection-Schedule,-Statistics-And-General-Info.aspx, http://www.cor.pa.gov/Facilities/CountyPrisons/Pages/County-Prison-Contact-Info.aspx",2022-01-07 15:27:25+00:00,2022-01-07 15:27:25+00:00,Pinnacle State Park,NY,STEUBEN,42.0972,-77.2103,490,240.75
10003212,SUFFOLK COUNTY JAIL - RIVERHEAD,100 CENTER DR SOUTH,RIVERHEAD,NY,11901,40.91418394827623,-72.67269224424965,COUNTY,NOT AVAILABLE,769.0,OPEN,https://www.suffolkcountysheriffsoffice.com/visiting-information,2022-01-07 15:27:25+00:00,2022-01-07 15:27:25+00:00,Holtsville,NY,SUFFOLK,40.8278,-73.0575,291,185.33333333333334
10002291,SUFFOLK COUNTY DWI ALTERNATIVE FACILITY,YAPHANK AVE,YAPHANK,NY,11980,40.81617458263642,-72.92192487534852,COUNTY,NOT AVAILABLE,54.0,OPEN,https://www.suffolkcountysheriffsoffice.com/facilities,2022-01-07 15:27:25+00:00,2022-01-07 15:27:25+00:00,Holtsville,NY,SUFFOLK,40.8278,-73.0575,291,185.33333333333334
10006837,HOPE FOR YOUTH NON SECURE DETENTION CENTER,201 DIXON AVENUE,AMITYVILLE,NY,11701,40.68315960009747,-73.41032099875463,STATE,JUVENILE,12.0,OPEN,https://hfyny.org/,2022-01-07 15:27:25+00:00,2022-01-07 15:27:25+00:00,Holtsville,NY,SUFFOLK,40.8278,-73.0575,291,185.33333333333334
10006618,BRENTWOOD RESIDENTIAL CENTER,1230 COMMACK ROAD,DIX HILLS,NY,11746,40.7888605463361,-73.30335663100584,STATE,JUVENILE,25.0,OPEN,https://ocfs.ny.gov/main/rehab/regionalListingDetail.asp?ID=2,2022-01-07 15:27:25+00:00,2022-01-07 15:27:25+00:00,Holtsville,NY,SUFFOLK,40.8278,-73.0575,291,185.33333333333334
10002292,SUFFOLK COUNTY JAIL - YAPHANK,GLOVER DRIVE,YAPHANK,NY,11980,40.81491596893508,-72.92365743509289,COUNTY,MINIMUM,504.0,OPEN,https://www.suffolkcountysheriffsoffice.com/facilities,2022-01-07 15:27:25+00:00,2022-01-07 15:27:25+00:00,Holtsville,NY,SUFFOLK,40.8278,-73.0575,291,185.33333333333334
10006320,QUEENS DETENTION FACILITY,182-22 150TH AVENUE,JAMAICA,NY,11413,40.65690673921885,-73.76508562828928,FEDERAL,NOT AVAILABLE,222.0,OPEN,https://www.geogroup.com/FacilityDetail/FacilityID/73,2022-01-07 15:27:25+00:00,2022-01-07 15:27:25+00:00,Queens Near-road,NY,QUEENS,40.739264,-73.817694,315,198.375
10005807,LEADERSHIP TRAINING INSTITUTE - PROJECT 29,29 RICHARDSON PLACE,HEMPSTEAD,NY,11550,40.7066101175772,-73.61738758027701,LOCAL,JUVENILE,12.0,OPEN,https://www.ltiny.org/programs-services/re-entry-services/,2022-01-07 15:27:25+00:00,2022-01-07 15:27:25+00:00,Queens Near-road,NY,QUEENS,40.739264,-73.817694,315,198.375
10003213,NASSAU COUNTY MERCYFIRST-WHISTON HALL NSD,525 CONVENT RD,SYOSSET,NY,11791,40.82183789778738,-73.48739138511054,STATE,JUVENILE,-999.0,OPEN,https://www.mercyfirst.org/,2022-01-07 15:27:25+00:00,2022-01-07 15:27:25+00:00,Queens Near-road,NY,QUEENS,40.739264,-73.817694,315,198.375
10003214,NASSAU COUNTY CORRECTIONAL CENTER,100 CARMAN AVE,EAST MEADOW,NY,11554,40.73361605722869,-73.55288104451873,COUNTY,NOT AVAILABLE,-999.0,OPEN,https://www.nassaucountyny.gov/1892/Correctional-Center,2022-01-07 15:27:25+00:00,2022-01-07 15:27:25+00:00,Queens Near-road,NY,QUEENS,40.739264,-73.817694,315,198.375
10003215,NASSAU COUNTY JUVENILE DETENTION CENTER,61 CARMAN AVE,WESTBURY,NY,11590,40.75440054869162,-73.55463080214021,COUNTY,JUVENILE,32.0,OPEN,https://www.nassaucountyny.gov/3437/Juvenile-Detention-Center,2022-01-07 15:27:25+00:00,2022-01-07 15:27:25+00:00,Queens Near-road,NY,QUEENS,40.739264,-73.817694,315,198.375
10005808,LEADERSHIP TRAINING INSTITUTE - PROJECT 350,350 GREENWICH STREET,HEMPSTEAD,NY,11550,40.6986355884785,-73.61286351693802,LOCAL,JUVENILE,8.0,OPEN,https://www.ltiny.org/programs-services/re-entry-services/,2022-01-07 15:27:25+00:00,2022-01-07 15:27:25+00:00,Queens Near-road,NY,QUEENS,40.739264,-73.817694,315,198.375
10001504,GREEN HAVEN CORRECTIONAL FACILITY,594 STATE ROUTE 216,STORMVILLE,NY,12582,41.58036952241283,-73.71652395793484,STATE,MAXIMUM,2232.0,OPEN,https://doccs.ny.gov/location/green-haven-correctional-facility,2022-01-07 15:27:25+00:00,2022-01-07 15:27:25+00:00,Danbury,CT,FAIRFIELD,41.4014,-73.4447,276,200.04166666666666
10002290,BEDFORD HILLS CORRECTIONAL FACILITY,247 HARRIS RD,BEDFORD HILLS,NY,10507,41.23840339241847,-73.68078523541763,STATE,MAXIMUM,972.0,OPEN,https://doccs.ny.gov/location/bedford-hills-correctional-facility,2022-01-07 15:27:25+00:00,2022-01-07 15:27:25+00:00,Danbury,CT,FAIRFIELD,41.4014,-73.4447,276,200.04166666666666
10003208,TACONIC CORRECTIONAL FACILITY,250 HARRIS RD,BEDFORD HILLS,NY,10507,41.24514649109253,-73.67789467789967,STATE,MEDIUM,359.0,OPEN,https://doccs.ny.gov/location/taconic-correctional-facility,2022-01-07 15:27:25+00:00,2022-01-07 15:27:25+00:00,Danbury,CT,FAIRFIELD,41.4014,-73.4447,276,200.04166666666666
10003207,PUTNAM COUNTY JAIL,3 COUNTY CENTER,CARMEL,NY,10512,41.42515718111991,-73.6764747538697,COUNTY,NOT AVAILABLE,-999.0,OPEN,https://putnamsheriff.com/jail-visitation-schedule,2022-01-07 15:27:25+00:00,2022-01-07 15:27:25+00:00,Danbury,CT,FAIRFIELD,41.4014,-73.4447,276,200.04166666666666
10002282,CAYUGA COUNTY JAIL,7445 COUNTY HOUSE RD,AUBURN,NY,13021,42.97979071598431,-76.5435352006771,COUNTY,MAXIMUM,214.0,OPEN,https://www.cayugacounty.us/Faq.aspx?QID=103,2022-01-07 15:27:25+00:00,2022-01-07 15:27:25+00:00,E Syracuse,NY,ONONDAGA,43.0528,-76.0597,422,236.66666666666666
10005793,SKEELE VALLEY NON-SECURE DETENTION,6912 JONES ROAD,TULLY,NY,13159,42.81273826594133,-76.04491296575009,COUNTY,JUVENILE,12.0,OPEN,http://www.ocfs.state.ny.us/main/publications/Pub1160%20Facility%20Directory%20of%20Juvenile%20Detention%20Facilities.pdf,2022-01-07 15:27:25+00:00,2022-01-07 15:27:25+00:00,E Syracuse,NY,ONONDAGA,43.0528,-76.0597,422,236.66666666666666
10005242,HILLSIDE BIRCHVIEW JUVENILE DETENTION FACILITY,7432 COUNTY HOUSE ROAD,AUBURN,NY,13021,42.97458051581455,-76.5385655795265,STATE,JUVENILE,40.0,OPEN,https://www.hillside.com/about-us/family-agencies/regions-affiliates/hcc/,2022-01-07 15:27:25+00:00,2022-01-07 15:27:25+00:00,E Syracuse,NY,ONONDAGA,43.0528,-76.0597,422,236.66666666666666
10001500,MADISON COUNTY JAIL / SHERIFF,138 N COURT ST,WAMPSVILLE,NY,13163,43.08095438656935,-75.70304901488818,COUNTY,NOT AVAILABLE,127.0,OPEN,https://www.madisoncounty.ny.gov/376/Correction-Division,2022-01-07 15:27:25+00:00,2022-01-07 15:27:25+00:00,E Syracuse,NY,ONONDAGA,43.0528,-76.0597,422,236.66666666666666
10003158,ONONDAGA COUNTY JUSTICE CENTER,555 S STATE ST,SYRACUSE,NY,13202,43.04616961507525,-76.14650282124816,COUNTY,MAXIMUM,-999.0,OPEN,https://sheriff.ongov.net/custody/justice-center/,2022-01-07 15:27:25+00:00,2022-01-07 15:27:25+00:00,E Syracuse,NY,ONONDAGA,43.0528,-76.0597,422,236.66666666666666
10003159,HILLBROOK JUVENILE DETENTION CENTER,4949 VELASKO RD,SYRACUSE,NY,13215,43.010750336119834,-76.18724338785395,COUNTY,JUVENILE,32.0,OPEN,http://www.ongov.net/hillbrook/,2022-01-07 15:27:25+00:00,2022-01-07 15:27:25+00:00,E Syracuse,NY,ONONDAGA,43.0528,-76.0597,422,236.66666666666666
10000746,HARRIET TUBMAN RESIDENTIAL CENTER,6706 PINE RIDGE RD,AUBURN,NY,13021,42.94572063899168,-76.50370434756842,STATE,JUVENILE,25.0,OPEN,https://ocfs.ny.gov/main/rehab/regionalListingDetail.asp?ID=27,2022-01-07 15:27:25+00:00,2022-01-07 15:27:25+00:00,E Syracuse,NY,ONONDAGA,43.0528,-76.0597,422,236.66666666666666
10001499,ONONDAGA COUNTY DEPARTMENT OF CORRECTION,6660 E SENECA TURNPIKE,JAMESVILLE,NY,13078,42.98785045594512,-76.06176064694804,COUNTY,MAXIMUM,516.0,OPEN,https://sheriff.ongov.net/correction/,2022-01-07 15:27:25+00:00,2022-01-07 15:27:25+00:00,E Syracuse,NY,ONONDAGA,43.0528,-76.0597,422,236.66666666666666
10003188,COXSACKIE CORRECTIONAL FACILITY,11260 ROUTE 9 WEST,COXSACKIE,NY,12051,42.34343204519838,-73.83578762197736,STATE,MAXIMUM,1006.0,OPEN,https://doccs.ny.gov/location/coxsackie-correctional-facility,2022-01-07 15:27:25+00:00,2022-01-07 15:27:25+00:00,Albany,NY,ALBANY,42.6425,-73.7547,278,176.625
10003189,GREENE CORRECTIONAL FACILITY,165 PLANK RD,COXSACKIE,NY,12051,42.34654179227737,-73.82226290446214,STATE,MEDIUM,1755.0,OPEN,https://doccs.ny.gov/location/greene-correctional-facility,2022-01-07 15:27:25+00:00,2022-01-07 15:27:25+00:00,Albany,NY,ALBANY,42.6425,-73.7547,278,176.625
10003178,ALBANY COUNTY CORRECTIONAL FACILITY,840 ALBANY SHAKER RD,ALBANY,NY,12211,42.75164268846272,-73.81657819324907,COUNTY,NOT AVAILABLE,1043.0,OPEN,https://www.albanycounty.com/government/county-sheriff/corrections,2022-01-07 15:27:25+00:00,2022-01-07 15:27:25+00:00,Albany,NY,ALBANY,42.6425,-73.7547,278,176.625
10003172,RENSSELAER COUNTY JAIL,4000 MAIN ST,TROY,NY,12180,42.71006129768555,-73.70068419247228,COUNTY,NOT AVAILABLE,473.0,OPEN,http://www.rensco.com/departments/sheriff/bureau-of-corrections/,2022-01-07 15:27:25+00:00,2022-01-07 15:27:25+00:00,Albany,NY,ALBANY,42.6425,-73.7547,278,176.625
10003173,SCHENECTADY COUNTY CORRECTIONAL FACILITY,320 VEEDER AVE,SCHENECTADY,NY,12307,42.809934683217016,-73.9402754271483,COUNTY,NOT AVAILABLE,378.0,OPEN,https://www.schenectadycounty.com/node/272,2022-01-07 15:27:25+00:00,2022-01-07 15:27:25+00:00,Albany,NY,ALBANY,42.6425,-73.7547,278,176.625
10003179,CAPITAL DISTRICT SECURE JUVENILE DETENTION CENTER,838 ALBANY SHAKER RD,ALBANY,NY,12211,42.753221231159316,-73.81869371286045,COUNTY,JUVENILE,24.0,OPEN,http://www.ocfs.state.ny.us/main/publications/Pub1160%20Facility%20Directory%20of%20Juvenile%20Detention%20Facilities.pdf,2022-01-07 15:27:25+00:00,2022-01-07 15:27:25+00:00,Albany,NY,ALBANY,42.6425,-73.7547,278,176.625
10003152,MID-STATE CORRECTIONAL FACILITY,9005 OLD RIVER RD,MARCY,NY,13403,43.168787286437336,-75.2971093474107,STATE,MEDIUM,1716.0,OPEN,https://doccs.ny.gov/location/mid-state-correctional-facility,2022-01-07 15:27:25+00:00,2022-01-07 15:27:25+00:00,Utica,NY,ONEIDA,43.0994,-75.225,303,181.66666666666666
10003149,MOHAWK CORRECTIONAL FACILITY,6514 ROUTE 26,ROME,NY,13442,43.18104176676694,-75.48185142018518,STATE,MEDIUM,1423.0,OPEN,https://doccs.ny.gov/location/mohawk-correctional-facility,2022-01-07 15:27:25+00:00,2022-01-07 15:27:25+00:00,Utica,NY,ONEIDA,43.0994,-75.225,303,181.66666666666666
10000751,MARCY CORRECTIONAL FACILITY,9000 OLD RIVER RD,MARCY,NY,13403,43.163974218566416,-75.31238561221176,STATE,MEDIUM,1218.0,OPEN,https://doccs.ny.gov/location/marcy-correctional-facility,2022-01-07 15:27:25+00:00,2022-01-07 15:27:25+00:00,Utica,NY,ONEIDA,43.0994,-75.225,303,181.66666666666666
10000750,CENTRAL NEW YORK PSYCHIATRIC CENTER,"9005 OLD RIVER RD, PO BOX 300",MARCY,NY,13403,43.1672828565794,-75.30277573164622,STATE,MAXIMUM,220.0,OPEN,https://omh.ny.gov/omhweb/facilities/cnpc/,2022-01-07 15:27:25+00:00,2022-01-07 15:27:25+00:00,Utica,NY,ONEIDA,43.0994,-75.225,303,181.66666666666666
10003151,ONEIDA COUNTY CORRECTIONAL FACILITY,6075 JUDD RD,ORISKANY,NY,13424,43.156052668418106,-75.37734475960895,COUNTY,MAXIMUM,634.0,OPEN,http://oneidacountysheriff.us/correctiondivision/correctionofficer,2022-01-07 15:27:25+00:00,2022-01-07 15:27:25+00:00,Utica,NY,ONEIDA,43.0994,-75.225,303,181.66666666666666
10005241,HERKIMER COUNTY JAIL,320 NORTH MAIN STREET,HERKIMER,NY,13350,43.02907251734305,-74.98800481595308,COUNTY,NOT AVAILABLE,-999.0,OPEN,https://www.herkimercounty.org/government/sheriff.php,2022-01-07 15:27:25+00:00,2022-01-07 15:27:25+00:00,Utica,NY,ONEIDA,43.0994,-75.225,303,181.66666666666666
10003146,INDUSTRY RESIDENTIAL CENTER,375 RUSH SCOTTSVILLE RD,RUSH,NY,14543,42.99964297667979,-77.71664316343987,STATE,JUVENILE,50.0,OPEN,http://ocfs.ny.gov/main/rehab/prea.asp,2022-01-07 15:27:25+00:00,2022-01-07 15:27:25+00:00,Rochester Near-road,NY,MONROE,43.145021,-77.557608,228,153.08333333333334
10005791,HILLSIDE - NORTHAVEN TERRACE,160 NORTHAVEN TERRACE,ROCHESTER,NY,14621,43.19056205698625,-77.58774099240112,COUNTY,JUVENILE,19.0,OPEN,http://www.ocfs.state.ny.us/main/publications/Pub1160%20Facility%20Directory%20of%20Juvenile%20Detention%20Facilities.pdf,2022-01-07 15:27:25+00:00,2022-01-07 15:27:25+00:00,Rochester Near-road,NY,MONROE,43.145021,-77.557608,228,153.08333333333334
10002286,MONROE COUNTY JAIL,130 PLYMOUTH AVE S,ROCHESTER,NY,14614,43.152554075273834,-77.61345655507299,COUNTY,MAXIMUM,1000.0,OPEN,https://www2.monroecounty.gov/sheriff-index.php,2022-01-07 15:27:25+00:00,2022-01-07 15:27:25+00:00,Rochester Near-road,NY,MONROE,43.145021,-77.557608,228,153.08333333333334
10002285,MONROE COUNTY CORRECTIONAL FACILITY,750 E HENRIETTA RD,ROCHESTER,NY,14623,43.10684750953096,-77.61187790691373,COUNTY,NOT AVAILABLE,475.0,OPEN,https://www2.monroecounty.gov/sheriff-jailbureau,2022-01-07 15:27:25+00:00,2022-01-07 15:27:25+00:00,Rochester Near-road,NY,MONROE,43.145021,-77.557608,228,153.08333333333334
10003148,ROCHESTER CORRECTIONAL FACILITY,470 FORD ST,ROCHESTER,NY,14608,43.14379574181195,-77.61671589054322,STATE,MINIMUM,70.0,OPEN,https://doccs.ny.gov/location/rochester-correctional-facility,2022-01-07 15:27:25+00:00,2022-01-07 15:27:25+00:00,Rochester Near-road,NY,MONROE,43.145021,-77.557608,228,153.08333333333334
10006836,MONROE COUNTY CHILDREN'S CENTER - RUSH,400 RUSH SCOTTSVILLE RD,RUSH,NY,14543,43.005409017908704,-77.7134659826156,COUNTY,JUVENILE,20.0,OPEN,https://ocfs.ny.gov/main/rehab/regionalListing1.asp,2022-01-07 15:27:25+00:00,2022-01-07 15:27:25+00:00,Rochester Near-road,NY,MONROE,43.145021,-77.557608,228,153.08333333333334
10003147,INDUSTRY SECURE CENTER,101 RYDER HILL RD,RUSH,NY,14543,42.99253361661966,-77.71441328059912,STATE,JUVENILE,-999.0,OPEN,https://newyork.webschoolpro.com/industry-secure-center-school_NY261701978752/school-characteristics.html,2022-01-07 15:27:25+00:00,2022-01-07 15:27:25+00:00,Rochester Near-road,NY,MONROE,43.145021,-77.557608,228,153.08333333333334
10005795,HILLSIDE - ONTARIO COUNTY - HOPEWELL,3093 COUNTY COMPLEX DRIVE,CANANDAIGUA,NY,14424,42.8845236955534,-77.21495183024464,COUNTY,JUVENILE,10.0,OPEN,http://www.ocfs.state.ny.us/main/publications/Pub1160%20Facility%20Directory%20of%20Juvenile%20Detention%20Facilities.pdf,2022-01-07 15:27:25+00:00,2022-01-07 15:27:25+00:00,Rochester Near-road,NY,MONROE,43.145021,-77.557608,228,153.08333333333334
10006377,JOHNSTOWN CCC,301 WASHINGTON STREET,JOHNSTOWN,PA,15901,40.32830140164322,-78.92029841587963,STATE,MINIMUM,-999.0,OPEN,https://www.tribdem.com/news/controversial-community-corrections-facility-opens-its-doors-for-inside-look/article_e278f520-e2f8-11e8-8d23-6b79b1c98eed.html,2022-01-07 15:27:25+00:00,2022-01-07 15:27:25+00:00,Johnstown,PA,CAMBRIA,40.3097,-78.9158,155,91.29166666666667
10003087,SEXUAL RESPONSIBILITY AND TREATMENT PROGRAM,121 LONGVIEW DR,TORRANCE,PA,15779,40.41666355464354,-79.24253342217683,STATE,JUVENILE,64.0,OPEN,https://www.dhs.pa.gov/Services/Assistance/Pages/Torrance-State-Hospital.aspx,2022-01-07 15:27:25+00:00,2022-01-07 15:27:25+00:00,Johnstown,PA,CAMBRIA,40.3097,-78.9158,155,91.29166666666667
10005235,LANCASTER COUNTY YOUTH INTERVENTION CENTER,235 CIRCLE AVE,LANCASTER,PA,17602,40.033140081753594,-76.28354251270932,COUNTY,JUVENILE,96.0,OPEN,http://www.lcyic.com/home.htm,2022-01-07 15:27:25+00:00,2022-01-07 15:27:25+00:00,Lancaster,PA,LANCASTER,40.0467,-76.2833,353,202.66666666666666
10000734,LANCASTER COUNTY PRISON,625 EAST KING ST,LANCASTER,PA,17602,40.04038283505179,-76.29242338747305,COUNTY,NOT AVAILABLE,1102.0,OPEN,"http://www.cor.pa.gov/Facilities/CountyPrisons/Pages/Inspection-Schedule,-Statistics-And-General-Info.aspx, http://www.cor.pa.gov/Facilities/CountyPrisons/Pages/County-Prison-Contact-Info.aspx",2022-01-07 15:27:25+00:00,2022-01-07 15:27:25+00:00,Lancaster,PA,LANCASTER,40.0467,-76.2833,353,202.66666666666666
10006380,RIVERSIDE CCC,3001 BEAVER AVENUE,PITTSBURGH,PA,15233,40.469770923784345,-80.04016540821972,STATE,MINIMUM,-999.0,OPEN,https://www.cor.pa.gov/Facilities/CommunityCorrections/Documents/Region%203.pdf,2022-01-07 15:27:25+00:00,2022-01-07 15:27:25+00:00,Avalon,PA,ALLEGHENY,40.499789,-80.071347,150,93.25
10001490,LAWRENCE COUNTY JAIL,111 S MILTON ST,NEW CASTLE,PA,16101,40.99982004571969,-80.33741500524543,COUNTY,NOT AVAILABLE,282.0,OPEN,"http://www.cor.pa.gov/Facilities/CountyPrisons/Pages/Inspection-Schedule,-Statistics-And-General-Info.aspx, http://www.cor.pa.gov/Facilities/CountyPrisons/Pages/County-Prison-Contact-Info.aspx",2022-01-07 15:27:25+00:00,2022-01-07 15:27:25+00:00,Farrell,PA,MERCER,41.215,-80.485,89,68.5
10003057,MERCER COUNTY JAIL,55 THOMPSON RD,MERCER,PA,16137,41.20201462646706,-80.2163192358369,COUNTY,NOT AVAILABLE,310.0,OPEN,"https://www.mcc.co.mercer.pa.us/jail/jailreport/default.htm, http://www.cor.pa.gov/Facilities/CountyPrisons/Pages/County-Prison-Contact-Info.aspx",2022-01-07 15:27:25+00:00,2022-01-07 15:27:25+00:00,Farrell,PA,MERCER,41.215,-80.485,89,68.5
10003056,SCI MERCER,801 BUTLER PIKE,MERCER,PA,16137,41.20134122735958,-80.22434808073801,STATE,MINIMUM,1494.0,OPEN,http://www.cor.pa.gov/About%20Us/Statistics/Pages/Monthly-Population-Reports.aspx,2022-01-07 15:27:25+00:00,2022-01-07 15:27:25+00:00,Farrell,PA,MERCER,41.215,-80.485,89,68.5
10000737,SCI SOMERSET,1590 WALTERS MILL RD,SOMERSET,PA,15510,39.964589659202915,-79.0391841429113,STATE,MEDIUM,2203.0,OPEN,http://www.cor.pa.gov/About%20Us/Statistics/Pages/Monthly-Population-Reports.aspx,2022-01-07 15:27:25+00:00,2022-01-07 15:27:25+00:00,Piney Run,MD,GARRETT,39.705799,-79.011902,116,76.79166666666667
10003108,SOMERSET COUNTY PRISON,127 E FAIRVIEW ST,SOMERSET,PA,15501,40.010473951068136,-79.07762566130995,COUNTY,NOT AVAILABLE,142.0,OPEN,https://www.cor.pa.gov/About%20Us/Statistics/Pages/Monthly-Population-Reports.aspx,2022-01-07 15:27:25+00:00,2022-01-07 15:27:25+00:00,Piney Run,MD,GARRETT,39.705799,-79.011902,116,76.79166666666667
10003107,SCI LAUREL HIGHLANDS,5706 GLADES PIKE,SOMERSET,PA,15501,40.004575295887626,-79.0398997658123,STATE,MEDIUM,1571.0,OPEN,http://www.cor.pa.gov/About%20Us/Statistics/Pages/Monthly-Population-Reports.aspx,2022-01-07 15:27:25+00:00,2022-01-07 15:27:25+00:00,Piney Run,MD,GARRETT,39.705799,-79.011902,116,76.79166666666667
10005826,MORRIS COUNTY JUVENILE DETENTION CENTER,460 WEST HANOVER AVE,MORRISTOWN,NJ,07960,40.832032276390784,-74.51999686500345,COUNTY,JUVENILE,42.0,OPEN,https://hs.morriscountynj.gov/detention/,2022-01-07 15:27:25+00:00,2022-01-07 15:27:25+00:00,Paterson,NJ,PASSAIC,40.918381,-74.168092,273,189.58333333333334
10003984,PASSAIC COUNTY JAIL,11 MARSHALL ST,PATERSON,NJ,07501,40.91267993762424,-74.17384787268573,COUNTY,MAXIMUM,1242.0,OPEN,https://www.pcsheriff.org/court-services.html,2022-01-07 15:27:25+00:00,2022-01-07 15:27:25+00:00,Paterson,NJ,PASSAIC,40.918381,-74.168092,273,189.58333333333334
10001519,SOUTH WOODS STATE PRISON,215 S BURLINGTON RD,BRIDGETON,NJ,08302,39.413085609445,-75.20767164430629,STATE,MEDIUM,3188.0,OPEN,https://www.nj.gov/corrections/pages/index.shtml,2022-01-07 15:27:25+00:00,2022-01-07 15:27:25+00:00,Rte 9 Del. City,DE,NEW CASTLE,39.57768,-75.6036,407,212.25
10004016,CUMBERLAND COUNTY JAIL,54 W BROAD ST,BRIDGETON,NJ,08302,39.427090710547134,-75.23888668395323,COUNTY,MEDIUM,550.0,OPEN,http://www.co.cumberland.nj.us/doc-contact,2022-01-07 15:27:25+00:00,2022-01-07 15:27:25+00:00,Rte 9 Del. City,DE,NEW CASTLE,39.57768,-75.6036,407,212.25
10004020,CUMBERLAND COUNTY JUVENILE DETENTION CENTER,135 SUNNYSLOPE DR,BRIDGETON,NJ,08302,39.41266514459184,-75.26087764127024,COUNTY,JUVENILE,46.0,OPEN,http://www.co.cumberland.nj.us/content/22602/22944/default.aspx,2022-01-07 15:27:25+00:00,2022-01-07 15:27:25+00:00,Rte 9 Del. City,DE,NEW CASTLE,39.57768,-75.6036,407,212.25
10002308,SALEM COUNTY CORRECTIONAL FACILITY,125 CEMETERY RD,WOODSTOWN,NJ,08098,39.62988106135217,-75.35721533554168,COUNTY,MAXIMUM,464.0,OPEN,https://www.salemcountysheriff.com/corrections/,2022-01-07 15:27:25+00:00,2022-01-07 15:27:25+00:00,MLK,DE,NEW CASTLE,39.739444,-75.558056,403,225.0
10000699,HOWARD R YOUNG CORRECTIONAL INSTITUTION,1301 E 12TH ST,WILMINGTON,DE,19802,39.741242293143664,-75.529405819612,STATE,MAXIMUM,1180.0,OPEN,https://doc.delaware.gov/assets/documents/annual_report/DOC_2018AnnualReport.pdf,2022-01-07 15:27:25+00:00,2022-01-07 15:27:25+00:00,MLK,DE,NEW CASTLE,39.739444,-75.558056,403,225.0
10000703,FERRIS SCHOOL FOR BOYS,959 CENTRE RD,WILMINGTON,DE,19805,39.75225487361885,-75.61095702206913,STATE,JUVENILE,72.0,OPEN,http://kids.delaware.gov/yrs/yrs.shtml,2022-01-07 15:27:25+00:00,2022-01-07 15:27:25+00:00,MLK,DE,NEW CASTLE,39.739444,-75.558056,403,225.0
10000702,DIVISION OF YOUTH REHABILITATIVE SERVICES RESIDENTIAL COTTAGES,1825 FAULKLAND RD,WILMINGTON,DE,19805,39.750161744005524,-75.61257203374561,STATE,JUVENILE,45.0,OPEN,http://kids.delaware.gov/yrs/yrs.shtml,2022-01-07 15:27:25+00:00,2022-01-07 15:27:25+00:00,MLK,DE,NEW CASTLE,39.739444,-75.558056,403,225.0
10000701,PLUMMER COMMUNITY CORRECTIONS CENTER,38 TODDS LN,WILMINGTON,DE,19802,39.75664470835196,-75.52904371439023,STATE,NOT AVAILABLE,246.0,OPEN,https://doc.delaware.gov/assets/documents/annual_report/DOC_2018AnnualReport.pdf,2022-01-07 15:27:25+00:00,2022-01-07 15:27:25+00:00,MLK,DE,NEW CASTLE,39.739444,-75.558056,403,225.0
10002260,BAYLOR WOMEN'S CORRECTIONAL INSTITUTION,660 BAYLOR BLVD,NEW CASTLE,DE,19720,39.70393220217154,-75.58125771567809,STATE,MAXIMUM,320.0,OPEN,https://doc.delaware.gov/assets/documents/annual_report/DOC_2018AnnualReport.pdf,2022-01-07 15:27:25+00:00,2022-01-07 15:27:25+00:00,MLK,DE,NEW CASTLE,39.739444,-75.558056,403,225.0
10005219,NEW CASTLE COUNTY DETENTION CENTER,963 CENTRE RD,WILMINGTON,DE,19805,39.754230207357175,-75.61055742039636,STATE,JUVENILE,64.0,OPEN,"http://kids.delaware.gov/yrs/reports.shtml, http://kids.delaware.gov/yrs/yrs.shtml",2022-01-07 15:27:25+00:00,2022-01-07 15:27:25+00:00,MLK,DE,NEW CASTLE,39.739444,-75.558056,403,225.0
10006387,HAZEL D. PLANT WOMENS TREATMENT FACILITY,620 BAYLOR BOULEVARD,NEW CASTLE,DE,19720,39.70245095138067,-75.5829354391698,STATE,NOT AVAILABLE,96.0,OPEN,https://doc.delaware.gov/assets/documents/annual_report/DOC_2018AnnualReport.pdf,2022-01-07 15:27:25+00:00,2022-01-07 15:27:25+00:00,MLK,DE,NEW CASTLE,39.739444,-75.558056,403,225.0
10006832,BERGEN COUNTY JUVENILE DETENTION CENTER,200 NORTH STREET,TETERBORO,NJ,07608,40.86462606020094,-74.05384707427353,COUNTY,NOT AVAILABLE,-999.0,OPEN,https://www.njjda.org/locations/,2022-01-07 15:27:25+00:00,2022-01-07 15:27:25+00:00,Union City High School,NJ,HUDSON,40.770908,-74.036218,267,182.45833333333334
10001510,BERGEN COUNTY JAIL,160 S RIVER ST,HACKENSACK,NJ,07601,40.873794722315544,-74.03872980416945,COUNTY,MAXIMUM,1150.0,OPEN,https://www.bcsd.us/county-jail,2022-01-07 15:27:25+00:00,2022-01-07 15:27:25+00:00,Union City High School,NJ,HUDSON,40.770908,-74.036218,267,182.45833333333334
10003233,EDGECOMBE RESIDENTIAL TREATMENT FACILITY,611 EDGECOMBE AVE,NEW YORK,NY,10032,40.83627180427904,-73.93783441607543,STATE,MINIMUM,-999.0,OPEN,https://doccs.ny.gov/location/edgecombe-residential-treatment-facility,2022-01-07 15:27:25+00:00,2022-01-07 15:27:25+00:00,Union City High School,NJ,HUDSON,40.770908,-74.036218,267,182.45833333333334
10003216,HORIZON JUVENILE CENTER,560 BROOK AVE,BRONX,NY,10455,40.81553160577711,-73.91366654980057,LOCAL,JUVENILE,124.0,OPEN,https://www1.nyc.gov/site/acs/justice/secure-detention.page,2022-01-07 15:27:25+00:00,2022-01-07 15:27:25+00:00,Union City High School,NJ,HUDSON,40.770908,-74.036218,267,182.45833333333334
10006374,HARRISBURG CCC,27 NORTH CAMERON STREET,HARRISBURG,PA,17101,40.265680756196275,-76.87464228412233,STATE,MINIMUM,-999.0,OPEN,https://www.cor.pa.gov/Facilities/CommunityCorrections/Documents/Region%202.pdf,2022-01-07 15:27:25+00:00,2022-01-07 15:27:25+00:00,Harrisburg,PA,DAUPHIN,40.246992,-76.846988,387,207.75
10003094,DAUPHIN COUNTY PRISON,501 MALL RD,HARRISBURG,PA,17111,40.253094542302456,-76.83547732880977,COUNTY,NOT AVAILABLE,1322.0,OPEN,"http://www.dauphincounty.org/government/departments/prison/index.php, http://www.cor.pa.gov/Facilities/CountyPrisons/Pages/County-Prison-Contact-Info.aspx",2022-01-07 15:27:25+00:00,2022-01-07 15:27:25+00:00,Harrisburg,PA,DAUPHIN,40.246992,-76.846988,387,207.75
10003095,DAUPHIN COUNTY WORK RELEASE CENTER,919 GIBSON BLVD,STEELTON,PA,17113,40.25078327347887,-76.84233851525057,COUNTY,MINIMUM,-999.0,OPEN,http://www.dauphincounty.org/government/court_departments/work_release/index.php,2022-01-07 15:27:25+00:00,2022-01-07 15:27:25+00:00,Harrisburg,PA,DAUPHIN,40.246992,-76.846988,387,207.75
10003096,HERBERT SCHAFFNER YOUTH CENTER,911 GIBSON BLVD,STEELTON,PA,17113,40.25050639883093,-76.84418620566862,COUNTY,JUVENILE,24.0,OPEN,http://www.arcfamily.com/,2022-01-07 15:27:25+00:00,2022-01-07 15:27:25+00:00,Harrisburg,PA,DAUPHIN,40.246992,-76.846988,387,207.75
10000733,SCI CAMP HILL,2500 LISBURN RD.,CAMP HILL,PA,17001,40.217966863516466,-76.92738170287988,STATE,NOT AVAILABLE,3272.0,OPEN,http://www.cor.pa.gov/About%20Us/Statistics/Pages/Monthly-Population-Reports.aspx,2022-01-07 15:27:25+00:00,2022-01-07 15:27:25+00:00,Harrisburg,PA,DAUPHIN,40.246992,-76.846988,387,207.75
10003080,LEHIGH COUNTY PRISON,38 N 4TH ST,ALLENTOWN,PA,18102,40.604898408788046,-75.46640336453697,COUNTY,MAXIMUM,1270.0,OPEN,"http://www.cor.pa.gov/Facilities/CountyPrisons/Pages/Inspection-Schedule,-Statistics-And-General-Info.aspx, http://www.cor.pa.gov/Facilities/CountyPrisons/Pages/County-Prison-Contact-Info.aspx",2022-01-07 15:27:25+00:00,2022-01-07 15:27:25+00:00,Allentown,PA,LEHIGH,40.6119,-75.4325,449,283.0416666666667
10003081,LEHIGH COUNTY COMMUNITY CORRECTIONS CENTER,1600 RIVERSIDE DR,BETHLEHEM,PA,18016,40.612469243424464,-75.41265630356779,COUNTY,MINIMUM,400.0,OPEN,https://www.lehighcounty.org/Departments/Corrections,2022-01-07 15:27:25+00:00,2022-01-07 15:27:25+00:00,Allentown,PA,LEHIGH,40.6119,-75.4325,449,283.0416666666667
10004019,FCI FAIRTON CAMP,655 FAIRTON MILLVILLE RD,FAIRTON,NJ,08320,39.383292923602745,-75.15624807517715,FEDERAL,MINIMUM,104.0,OPEN,https://www.bop.gov/locations/institutions/fai/,2022-01-07 15:27:25+00:00,2022-01-07 15:27:25+00:00,Dover,DE,KENT,39.155,-75.518056,215,176.125
10001520,FCI FAIRTON,655 FAIRTON MILLVILLE RD,FAIRTON,NJ,08320,39.38482608467495,-75.16020167019946,FEDERAL,MEDIUM,878.0,OPEN,https://www.bop.gov/locations/institutions/fai/,2022-01-07 15:27:25+00:00,2022-01-07 15:27:25+00:00,Dover,DE,KENT,39.155,-75.518056,215,176.125
10000704,MORRIS COMMUNITY CORRECTIONS CENTER,300 WATER ST,DOVER,DE,19904,39.15328515476888,-75.52726906138605,STATE,NOT AVAILABLE,150.0,OPEN,https://doc.delaware.gov/assets/documents/annual_report/DOC_2018AnnualReport.pdf,2022-01-07 15:27:25+00:00,2022-01-07 15:27:25+00:00,Dover,DE,KENT,39.155,-75.518056,215,176.125
10002261,CENTRAL VIOLATION OF PROBATION CENTER,875 SMYRNA LANDING RD,SMYRNA,DE,19977,39.32701412069855,-75.60080339613563,STATE,NOT AVAILABLE,250.0,OPEN,https://doc.delaware.gov/assets/documents/annual_report/DOC_2018AnnualReport.pdf,2022-01-07 15:27:25+00:00,2022-01-07 15:27:25+00:00,Dover,DE,KENT,39.155,-75.518056,215,176.125
10002262,JAMES T VAUGHN CORRECTIONAL CENTER,1181 PADDOCK RD,SMYRNA,DE,19977,39.33295450351376,-75.59958957310043,STATE,MAXIMUM,2601.0,OPEN,https://doc.delaware.gov/assets/documents/annual_report/DOC_2018AnnualReport.pdf,2022-01-07 15:27:25+00:00,2022-01-07 15:27:25+00:00,Dover,DE,KENT,39.155,-75.518056,215,176.125
10003119,DELAWARE COUNTY JUVENILE DETENTION CENTER,370 NORTH MIDDLETOWN RD,LIMA,PA,19037,39.9215557666957,-75.44457721282049,COUNTY,JUVENILE,66.0,OPEN,https://www.delcopa.gov/courts/juveniledetention.html,2022-01-07 15:27:25+00:00,2022-01-07 15:27:25+00:00,Chester,PA,DELAWARE,39.8356,-75.3725,438,238.20833333333334
10003117,SCI CHESTER,500 EAST FOURTH ST,CHESTER,PA,19013,39.85124479970771,-75.35133807829045,STATE,MEDIUM,1178.0,OPEN,http://www.cor.pa.gov/About%20Us/Statistics/Pages/Monthly-Population-Reports.aspx,2022-01-07 15:27:25+00:00,2022-01-07 15:27:25+00:00,Chester,PA,DELAWARE,39.8356,-75.3725,438,238.20833333333334
10002283,NIAGARA COUNTY JAIL,5526 NIAGARA ST,LOCKPORT,NY,14094,43.18033962537734,-78.73735867632361,COUNTY,NOT AVAILABLE,453.0,OPEN,https://www.niagarasheriff.com/main.html,2022-01-07 15:27:25+00:00,2022-01-07 15:27:25+00:00,Tonawanda II,NY,ERIE,42.9981,-78.8993,170,126.20833333333333
10005799,BURNHAM YOUTH SAFE CENTER,13640 ROUTE 22,CANAAN,NY,12029,42.414750933519066,-73.40370854966454,COUNTY,JUVENILE,-999.0,OPEN,https://www.berkshirefarm.org/,2022-01-07 15:27:25+00:00,2022-01-07 15:27:25+00:00,PittsfieldES,MA,BERKSHIRE,42.452299,-73.239648,190,161.25
10000708,SUSSEX VIOLATION OF PROBATION CENTER,23207 DUPONT BLVD,GEORGETOWN,DE,19947,38.65754870123583,-75.36862568848883,STATE,NOT AVAILABLE,250.0,OPEN,https://doc.delaware.gov/assets/documents/annual_report/DOC_2018AnnualReport.pdf,2022-01-07 15:27:25+00:00,2022-01-07 15:27:25+00:00,SEAFORD,DE,SUSSEX,38.6539,-75.6106,223,186.41666666666666
10000706,SUSSEX COMMUNITY CORRECTIONS CENTER,23207 DUPONT BLVD,GEORGETOWN,DE,19947,38.658484060069334,-75.37196788514665,STATE,NOT AVAILABLE,248.0,OPEN,https://doc.delaware.gov/assets/documents/annual_report/DOC_2018AnnualReport.pdf,2022-01-07 15:27:25+00:00,2022-01-07 15:27:25+00:00,SEAFORD,DE,SUSSEX,38.6539,-75.6106,223,186.41666666666666
10000707,SUSSEX CORRECTIONAL INSTITUTION,23203 DUPONT BLVD,GEORGETOWN,DE,19947,38.66004677950883,-75.37024596361536,STATE,MAXIMUM,1206.0,OPEN,https://doc.delaware.gov/assets/documents/annual_report/DOC_2018AnnualReport.pdf,2022-01-07 15:27:25+00:00,2022-01-07 15:27:25+00:00,SEAFORD,DE,SUSSEX,38.6539,-75.6106,223,186.41666666666666
10000705,STEVENSON HOUSE DETENTION CENTER,750 N DUPONT BOULEVARD,MILFORD,DE,19963,38.91877643915423,-75.43639510924086,STATE,JUVENILE,55.0,OPEN,"http://kids.delaware.gov/yrs/reports.shtml, http://kids.delaware.gov/yrs/yrs.shtml",2022-01-07 15:27:25+00:00,2022-01-07 15:27:25+00:00,KILLENS,DE,KENT,38.986672,-75.5568,243,189.70833333333334
