facility_id,facility_name,facility_address,facility_city,facility_state,facility_zip,facility_latitude,facility_longitude,facility_type,facility_security_level,facility_capacity,facility_status,facility_data_source_date,facility_data_edit_date,monitoring_site_name,monitoring_site_state,monitoring_site_county,monitoring_site_latitude,monitoring_site_longitude,peak_pm25_aqi,mean_pm25_aqi
10003100,WASHINGTON COUNTY CORRECTIONAL FACILITY,100 W CHERRY AVE,WASHINGTON,PA,15301,40.169477440802915,-80.24676408018185,COUNTY,NOT AVAILABLE,407.0,OPEN,2022-01-07 15:27:25+00:00,2022-01-07 15:27:25+00:00,Charleroi,PA,WASHINGTON,40.1469,-79.9033,66.0,37.4625
10003120,GREENE COUNTY PRISON,855 ROLLING MEADOWS RD,WAYNESBURG,PA,15370,39.889219046980934,-80.1288535573809,COUNTY,NOT AVAILABLE,196.0,OPEN,2022-01-07 15:27:25+00:00,2022-01-07 15:27:25+00:00,Charleroi,PA,WASHINGTON,40.1469,-79.9033,66.0,37.4625
10006379,PROGRESS CCC,179 PROGRESS AVENUE,WAYNESBURG,PA,15370,39.904212842918575,-80.13447274758244,STATE,MINIMUM,-999.0,OPEN,2022-01-07 15:27:25+00:00,2022-01-07 15:27:25+00:00,Charleroi,PA,WASHINGTON,40.1469,-79.9033,66.0,37.4625
10000738,FAYETTE COUNTY PRISON,12 COURT ST,UNIONTOWN,PA,15401,39.90208225741666,-79.72317446052885,COUNTY,NOT AVAILABLE,262.0,OPEN,2022-01-07 15:27:25+00:00,2022-01-07 15:27:25+00:00,Charleroi,PA,WASHINGTON,40.1469,-79.9033,66.0,37.4625
10003121,SCI GREENE,175 PROGRESS DR,WAYNESBURG,PA,15370,39.90623932075459,-80.13706126765365,STATE,CLOSE,1478.0,OPEN,2022-01-07 15:27:25+00:00,2022-01-07 15:27:25+00:00,Charleroi,PA,WASHINGTON,40.1469,-79.9033,66.0,37.4625
10003109,SCI FAYETTE,50 OVERLOOK DR,LABELLE,PA,15450,40.00049348711821,-79.98798327207919,STATE,MAXIMUM,1826.0,OPEN,2022-01-07 15:27:25+00:00,2022-01-07 15:27:25+00:00,Charleroi,PA,WASHINGTON,40.1469,-79.9033,66.0,37.4625
10005221,WAYNE COUNTY CORRECTIONAL FACILITY,44 MID-WAYNE DR,HONESDALE,PA,18431,41.54869833367216,-75.20883441540339,COUNTY,NOT AVAILABLE,201.0,OPEN,2022-01-07 15:27:25+00:00,2022-01-07 15:27:25+00:00,Scranton,PA,LACKAWANNA,41.4428,-75.6231,357.5,215.2458333333333
10005223,MINSEC OF SCRANTON,539 LINDEN ST,SCRANTON,PA,18503,41.40854956434984,-75.66108196167659,LOCAL,NOT AVAILABLE,30.0,OPEN,2022-01-07 15:27:25+00:00,2022-01-07 15:27:25+00:00,Scranton,PA,LACKAWANNA,41.4428,-75.6231,357.5,215.2458333333333
10003049,LACKAWANNA COUNTY PRISON,1371 N WASHINGTON AVE,SCRANTON,PA,18509,41.42265761763315,-75.64837181417558,COUNTY,MAXIMUM,1183.0,OPEN,2022-01-07 15:27:25+00:00,2022-01-07 15:27:25+00:00,Scranton,PA,LACKAWANNA,41.4428,-75.6231,357.5,215.2458333333333
10003059,PA CHILD CARE,701 SATHERS DR,PITTSTON TOWNSHIP,PA,18640,41.31229632379005,-75.72590593772624,NOT AVAILABLE,JUVENILE,60.0,OPEN,2022-01-07 15:27:25+00:00,2022-01-07 15:27:25+00:00,Scranton,PA,LACKAWANNA,41.4428,-75.6231,357.5,215.2458333333333
10003047,SCI WAYMART,11 FAIRVIEW DR,WAYMART,PA,18472,41.57445181175324,-75.42936698598824,STATE,MAXIMUM,1522.0,OPEN,2022-01-07 15:27:25+00:00,2022-01-07 15:27:25+00:00,Scranton,PA,LACKAWANNA,41.4428,-75.6231,357.5,215.2458333333333
10000714,WYOMING COUNTY CORRECTIONAL FACILITY,10 STARK ST,TUNKHANNOCK,PA,18657,41.54096964947759,-75.95039463423385,COUNTY,NOT AVAILABLE,78.0,OPEN,2022-01-07 15:27:25+00:00,2022-01-07 15:27:25+00:00,Scranton,PA,LACKAWANNA,41.4428,-75.6231,357.5,215.2458333333333
10001486,PIKE COUNTY CORRECTIONAL FACILITY,175 PIKE COUNTY BLVD,LORDS VALLEY,PA,18428,41.38896288560637,-75.07126228938868,COUNTY,NOT AVAILABLE,375.0,OPEN,2022-01-07 15:27:25+00:00,2022-01-07 15:27:25+00:00,Scranton,PA,LACKAWANNA,41.4428,-75.6231,357.5,215.2458333333333
10005222,SCRANTON COMMUNITY CORRECTIONS CENTER,240 ADAMS AVE,SCRANTON,PA,18503,41.40782319071652,-75.66111493301082,STATE,NOT AVAILABLE,36.0,OPEN,2022-01-07 15:27:25+00:00,2022-01-07 15:27:25+00:00,Scranton,PA,LACKAWANNA,41.4428,-75.6231,357.5,215.2458333333333
10000715,LACKAWANNA COUNTY COMMUNITY CORRECTIONS CENTER,614 SPRUCE ST,SCRANTON,PA,18503,41.406788142601044,-75.66215815727337,COUNTY,MINIMUM,-999.0,OPEN,2022-01-07 15:27:25+00:00,2022-01-07 15:27:25+00:00,Scranton,PA,LACKAWANNA,41.4428,-75.6231,357.5,215.2458333333333
10003050,LACKAWANNA COUNTY JUVENILE DETENTION UNIT,415 N WASHINGTON AVE,SCRANTON,PA,18503,41.41107838301149,-75.66087047175249,COUNTY,JUVENILE,10.0,OPEN,2022-01-07 15:27:25+00:00,2022-01-07 15:27:25+00:00,Scranton,PA,LACKAWANNA,41.4428,-75.6231,357.5,215.2458333333333
10005800,CHILDREN'S HOME - BROOME COUNTY NSD,1182 CHENANGO STREET,BINGHAMTON,NY,13901,42.151670012149694,-75.88328008297856,COUNTY,JUVENILE,-999.0,OPEN,2022-01-07 15:27:25+00:00,2022-01-07 15:27:25+00:00,Scranton,PA,LACKAWANNA,41.4428,-75.6231,357.5,215.2458333333333
10000712,USP CANAAN,3057 ERIC J. WILLIAMS MEMORIAL DRIVE,WAYMART,PA,18472,41.562937612212615,-75.4213317951197,FEDERAL,MAXIMUM,960.0,OPEN,2022-01-07 15:27:25+00:00,2022-01-07 15:27:25+00:00,Scranton,PA,LACKAWANNA,41.4428,-75.6231,357.5,215.2458333333333
10000713,USP CANAAN CAMP,3057 ERIC J. WILLIAMS MEMORIAL DRIVE,WAYMART,PA,18472,41.567611000895056,-75.41255541307439,FEDERAL,MINIMUM,128.0,OPEN,2022-01-07 15:27:25+00:00,2022-01-07 15:27:25+00:00,Scranton,PA,LACKAWANNA,41.4428,-75.6231,357.5,215.2458333333333
10003190,BROOME COUNTY CORRECTIONAL FACILITY,155 LT. VANWINKLE DRIVE,BINGHAMTON,NY,13905,42.13146982274941,-75.91679173188426,COUNTY,MAXIMUM,536.0,OPEN,2022-01-07 15:27:25+00:00,2022-01-07 15:27:25+00:00,Scranton,PA,LACKAWANNA,41.4428,-75.6231,357.5,215.2458333333333
10001485,SUSQUEHANNA COUNTY CORRECTIONAL FACILITY,137 ELLSWORTH DR,MONTROSE,PA,18801,41.80407887401789,-75.88534914097718,COUNTY,NOT AVAILABLE,111.0,OPEN,2022-01-07 15:27:25+00:00,2022-01-07 15:27:25+00:00,Scranton,PA,LACKAWANNA,41.4428,-75.6231,357.5,215.2458333333333
10003060,LUZERNE COUNTY CORRECTIONAL FACILITY,99 WATER ST,WILKES-BARRE,PA,18702,41.25405541142076,-75.8757393630042,COUNTY,NOT AVAILABLE,778.0,OPEN,2022-01-07 15:27:25+00:00,2022-01-07 15:27:25+00:00,Scranton,PA,LACKAWANNA,41.4428,-75.6231,357.5,215.2458333333333
10000718,SCI DALLAS,1000 FOLLIES RD,DALLAS,PA,18612,41.272558636025266,-76.01173392430023,STATE,MEDIUM,1941.0,OPEN,2022-01-07 15:27:25+00:00,2022-01-07 15:27:25+00:00,Scranton,PA,LACKAWANNA,41.4428,-75.6231,357.5,215.2458333333333
10000719,SCI RETREAT,660 STATE ROUTE 11,HUNLOCK CREEK,PA,18621,41.18787072887505,-76.08061518507121,STATE,MEDIUM,1104.0,OPEN,2022-01-07 15:27:25+00:00,2022-01-07 15:27:25+00:00,Scranton,PA,LACKAWANNA,41.4428,-75.6231,357.5,215.2458333333333
10000724,YOUTH FORESTRY CAMP #2,STATE HIGHWAY 534,WHITE HAVEN,PA,18661,41.026164506851266,-75.71397803735323,STATE,JUVENILE,49.0,OPEN,2022-01-07 15:27:25+00:00,2022-01-07 15:27:25+00:00,Scranton,PA,LACKAWANNA,41.4428,-75.6231,357.5,215.2458333333333
10006643,ABRAXAS I,165 ABRAXAS ROAD,MARIENVILLE,PA,16239,41.55104524568724,-79.12874624877503,STATE,JUVENILE,204.0,OPEN,2022-01-07 15:27:25+00:00,2022-01-07 15:27:25+00:00,Kittanning,PA,ARMSTRONG,40.8142,-79.565,54.2,28.433333333333337
10003065,ARMSTRONG COUNTY JAIL,171 STALEY'S COURT RD,KITTANNING,PA,16201,40.819063895607016,-79.48036866228875,COUNTY,NOT AVAILABLE,158.0,OPEN,2022-01-07 15:27:25+00:00,2022-01-07 15:27:25+00:00,Kittanning,PA,ARMSTRONG,40.8142,-79.565,54.2,28.433333333333337
10003058,CLARION COUNTY PRISON,309 AMSLER AVENUE,SHIPPENVILLE,PA,16254,41.23785307113517,-79.42268487624553,COUNTY,NOT AVAILABLE,126.0,OPEN,2022-01-07 15:27:25+00:00,2022-01-07 15:27:25+00:00,Kittanning,PA,ARMSTRONG,40.8142,-79.565,54.2,28.433333333333337
10003981,BUTLER COUNTY PRISON,202 SOUTH WASHINGTON STREET,BUTLER,PA,16001,40.859538561460795,-79.89756056828334,COUNTY,NOT AVAILABLE,564.0,OPEN,2022-01-07 15:27:25+00:00,2022-01-07 15:27:25+00:00,Kittanning,PA,ARMSTRONG,40.8142,-79.565,54.2,28.433333333333337
10003061,JEFFERSON COUNTY JAIL,578 SERVICE CENTER RD,BROOKVILLE,PA,15825,41.168306868101,-79.05488049343613,COUNTY,NOT AVAILABLE,158.0,OPEN,2022-01-07 15:27:25+00:00,2022-01-07 15:27:25+00:00,Kittanning,PA,ARMSTRONG,40.8142,-79.565,54.2,28.433333333333337
10006850,SUMMIT ACADEMY,839 HERMAN ROAD,BUTLER,PA,16002,40.830753570855315,-79.81466141417567,NOT AVAILABLE,JUVENILE,353.0,OPEN,2022-01-07 15:27:25+00:00,2022-01-07 15:27:25+00:00,Kittanning,PA,ARMSTRONG,40.8142,-79.565,54.2,28.433333333333337
10006848,WESTERN PA CHILD CARE,12 DAKOTA DRIVE,EMLENTON,PA,16373,41.17060414767508,-79.7473079946659,NOT AVAILABLE,JUVENILE,99.0,OPEN,2022-01-07 15:27:25+00:00,2022-01-07 15:27:25+00:00,Kittanning,PA,ARMSTRONG,40.8142,-79.565,54.2,28.433333333333337
10003052,SCI FOREST,286 WOODLAND DR,MARIENVILLE,PA,16239,41.48072070416191,-79.09728780917115,STATE,MAXIMUM,1961.0,OPEN,2022-01-07 15:27:25+00:00,2022-01-07 15:27:25+00:00,Kittanning,PA,ARMSTRONG,40.8142,-79.565,54.2,28.433333333333337
10006642,ABRAXAS ACADEMY,1000 ACADEMY DRIVE,MORGANTOWN,PA,19543,40.191808425691825,-75.9169530884003,STATE,JUVENILE,156.0,OPEN,2022-01-07 15:27:25+00:00,2022-01-07 15:27:25+00:00,Reading Airport,PA,BERKS,40.3833,-75.9686,418.3,204.38333333333335
10002270,BERKS COUNTY JAIL SYSTEM,1287 COUNTY WELFARE RD,LEESPORT,PA,19533,40.385264314320814,-76.02069527133276,COUNTY,NOT AVAILABLE,1546.0,OPEN,2022-01-07 15:27:25+00:00,2022-01-07 15:27:25+00:00,Reading Airport,PA,BERKS,40.3833,-75.9686,418.3,204.38333333333335
10002271,BERKS COUNTY COMMUNITY REENTRY CENTER,1261 COUNTY WELFARE RD,LEESPORT,PA,19533,40.38289771712255,-76.01771261726873,COUNTY,NOT AVAILABLE,-999.0,OPEN,2022-01-07 15:27:25+00:00,2022-01-07 15:27:25+00:00,Reading Airport,PA,BERKS,40.3833,-75.9686,418.3,204.38333333333335
10006847,BERKS COUNTY RESIDENTIAL CENTER,1040 BERKS ROAD,LEESPORT,PA,19533,40.379468243906494,-76.01953955373568,COUNTY,NOT AVAILABLE,-999.0,OPEN,2022-01-07 15:27:25+00:00,2022-01-07 15:27:25+00:00,Reading Airport,PA,BERKS,40.3833,-75.9686,418.3,204.38333333333335
10000725,SCHUYLKILL COUNTY PRISON,230 SANDERSON ST,POTTSVILLE,PA,17901,40.688516745263215,-76.19925296503548,COUNTY,NOT AVAILABLE,277.0,OPEN,2022-01-07 15:27:25+00:00,2022-01-07 15:27:25+00:00,Reading Airport,PA,BERKS,40.3833,-75.9686,418.3,204.38333333333335
10003073,SCI MAHANOY,301 MOREA RD,FRACKVILLE,PA,17932,40.79286194551762,-76.18081541410162,STATE,MEDIUM,2304.0,OPEN,2022-01-07 15:27:25+00:00,2022-01-07 15:27:25+00:00,Reading Airport,PA,BERKS,40.3833,-75.9686,418.3,204.38333333333335
10003074,SCI FRACKVILLE,1111 ALTAMONT BLVD,FRACKVILLE,PA,17931,40.77162246256599,-76.20882033651567,STATE,MAXIMUM,1125.0,OPEN,2022-01-07 15:27:25+00:00,2022-01-07 15:27:25+00:00,Reading Airport,PA,BERKS,40.3833,-75.9686,418.3,204.38333333333335
10000729,YOUTH FORESTRY CAMP #3,4534 TARKILN ROAD,JAMES CREEK,PA,16657,40.311021076024794,-78.12205483648891,STATE,JUVENILE,50.0,OPEN,2022-01-07 15:27:25+00:00,2022-01-07 15:27:25+00:00,Altoona,PA,BLAIR,40.515,-78.3889,108.2,73.26666666666667
10003982,BLAIR COUNTY PRISON,419 MARKET SQUARE ALLEY,HOLLIDAYSBURG,PA,16648,40.42859917572133,-78.39133599220582,COUNTY,NOT AVAILABLE,350.0,OPEN,2022-01-07 15:27:25+00:00,2022-01-07 15:27:25+00:00,Altoona,PA,BLAIR,40.515,-78.3889,108.2,73.26666666666667
10005786,HUNTINGDON COUNTY PRISON,300 CHURCH STREET,HUNTINGDON,PA,16652,40.48542410078896,-78.00804413606109,COUNTY,NOT AVAILABLE,48.0,OPEN,2022-01-07 15:27:25+00:00,2022-01-07 15:27:25+00:00,Altoona,PA,BLAIR,40.515,-78.3889,108.2,73.26666666666667
10003082,SCI SMITHFIELD,1120 PIKE ST,HUNTINGDON,PA,16652,40.498663968840205,-78.03556697062629,STATE,CLOSE,1125.0,OPEN,2022-01-07 15:27:25+00:00,2022-01-07 15:27:25+00:00,Altoona,PA,BLAIR,40.515,-78.3889,108.2,73.26666666666667
10003083,FCI LORETTO,772 SAINT JOSEPH ST,LORETTO,PA,15940,40.495701800346076,-78.62186790769891,FEDERAL,MINIMUM,677.0,OPEN,2022-01-07 15:27:25+00:00,2022-01-07 15:27:25+00:00,Altoona,PA,BLAIR,40.515,-78.3889,108.2,73.26666666666667
10003084,FCI LORETTO CAMP,772 SAINT JOSEPH ST,LORETTO,PA,15940,40.49770852421269,-78.61887379222532,FEDERAL,MINIMUM,107.0,OPEN,2022-01-07 15:27:25+00:00,2022-01-07 15:27:25+00:00,Altoona,PA,BLAIR,40.515,-78.3889,108.2,73.26666666666667
10000721,SCI HOUTZDALE,209 INSTITUTION DR,HOUTZDALE,PA,16698,40.81216962479681,-78.35675002824665,STATE,MEDIUM,2365.0,OPEN,2022-01-07 15:27:25+00:00,2022-01-07 15:27:25+00:00,Altoona,PA,BLAIR,40.515,-78.3889,108.2,73.26666666666667
10000728,SCI HUNTINGDON,1100 PIKE ST,HUNTINGDON,PA,16654,40.49111915571712,-78.028716589574,STATE,MAXIMUM,1804.0,OPEN,2022-01-07 15:27:25+00:00,2022-01-07 15:27:25+00:00,Altoona,PA,BLAIR,40.515,-78.3889,108.2,73.26666666666667
10003090,SHUMAN JUVENILE DETENTION CENTER,7150 HIGHLAND DRIVE,PITTSBURGH,PA,15206,40.48183545664652,-79.90315293613068,COUNTY,JUVENILE,120.0,OPEN,2022-01-07 15:27:25+00:00,2022-01-07 15:27:25+00:00,Lawrenceville,PA,ALLEGHENY,40.4656,-79.9611,58.3,32.104166666666664
10003093,ALLEGHENY COUNTY JAIL,950 2ND AVE,PITTSBURGH,PA,15219,40.43449309194165,-79.99345696172013,COUNTY,NOT AVAILABLE,3164.0,OPEN,2022-01-07 15:27:25+00:00,2022-01-07 15:27:25+00:00,Lawrenceville,PA,ALLEGHENY,40.4656,-79.9611,58.3,32.104166666666664
10005233,ALLEGHENY COUNTY TREATMENT ALTERNATIVES (ACTA),2410 FIFTH AVENUE,PITTSBURGH,PA,15213,40.4367526308935,-79.97038732746408,COUNTY,NOT AVAILABLE,50.0,OPEN,2022-01-07 15:27:25+00:00,2022-01-07 15:27:25+00:00,Lawrenceville,PA,ALLEGHENY,40.4656,-79.9611,58.3,32.104166666666664
10005231,RENEWAL INCORPORATED - MALE OFFENDERS,339 BOULEVARD OF THE ALLIES,PITTSBURGH,PA,15222,40.43825927774404,-80.00074081710376,MULTI,NOT AVAILABLE,-999.0,OPEN,2022-01-07 15:27:25+00:00,2022-01-07 15:27:25+00:00,Lawrenceville,PA,ALLEGHENY,40.4656,-79.9611,58.3,32.104166666666664
10006849,RENEWAL INCORPORATED,704 SECOND AVE,PITTSBURGH,PA,15219,40.43520219626749,-79.99429887475324,MULTI,NOT AVAILABLE,-999.0,OPEN,2022-01-07 15:27:25+00:00,2022-01-07 15:27:25+00:00,Lawrenceville,PA,ALLEGHENY,40.4656,-79.9611,58.3,32.104166666666664
10006378,PITTSBURGH CCC,535 SOUTH AIKEN AVENUE,PITTSBURGH,PA,15232,40.454859637714236,-79.93758147233139,STATE,MINIMUM,-999.0,OPEN,2022-01-07 15:27:25+00:00,2022-01-07 15:27:25+00:00,Lawrenceville,PA,ALLEGHENY,40.4656,-79.9611,58.3,32.104166666666664
10003092,NEW OUTLOOK ACADEMY,900 AGNEW RD,PITTSBURGH,PA,15227,40.40072462084588,-79.96556452108926,NOT AVAILABLE,JUVENILE,120.0,OPEN,2022-01-07 15:27:25+00:00,2022-01-07 15:27:25+00:00,Lawrenceville,PA,ALLEGHENY,40.4656,-79.9611,58.3,32.104166666666664
10003222,ANNA M KROSS CENTER,18-18 HAZEN ST,EAST ELMHURST,NY,11370,40.792180178508275,-73.88812297126208,LOCAL,NOT AVAILABLE,2400.0,OPEN,2022-01-07 15:27:25+00:00,2022-01-07 15:27:25+00:00,Bronx - IS74,NY,BRONX,40.814701,-73.886703,338.6,158.8782608695652
10001506,ROSE M SINGER CENTER,19-19 HAZEN ST,EAST ELMHURST,NY,11370,40.79068338106795,-73.87745716357892,LOCAL,NOT AVAILABLE,1700.0,OPEN,2022-01-07 15:27:25+00:00,2022-01-07 15:27:25+00:00,Bronx - IS74,NY,BRONX,40.814701,-73.886703,338.6,158.8782608695652
10003225,GEORGE MOTCHAN DETENTION CENTER,15-15 HAZEN ST,EAST ELMHURST,NY,11370,40.793245162459264,-73.88102302922414,LOCAL,NOT AVAILABLE,2098.0,OPEN,2022-01-07 15:27:25+00:00,2022-01-07 15:27:25+00:00,Bronx - IS74,NY,BRONX,40.814701,-73.886703,338.6,158.8782608695652
10000768,GEORGE R VIERNO CENTER,09-09 HAZEN ST,EAST ELMHURST,NY,11370,40.78907953744703,-73.87369629497323,LOCAL,NOT AVAILABLE,1350.0,OPEN,2022-01-07 15:27:25+00:00,2022-01-07 15:27:25+00:00,Bronx - IS74,NY,BRONX,40.814701,-73.886703,338.6,158.8782608695652
10003218,VERNON C BAIN CENTER [BARGE],1 HALLECK ST,BRONX,NY,10474,40.80196282643535,-73.87696382387,LOCAL,MAXIMUM,800.0,OPEN,2022-01-07 15:27:25+00:00,2022-01-07 15:27:25+00:00,Bronx - IS74,NY,BRONX,40.814701,-73.886703,338.6,158.8782608695652
10003220,WEST FACILITY,16-06 HAZEN ST,EAST ELMHURST,NY,11370,40.791828578758825,-73.89065773625177,LOCAL,NOT AVAILABLE,1900.0,OPEN,2022-01-07 15:27:25+00:00,2022-01-07 15:27:25+00:00,Bronx - IS74,NY,BRONX,40.814701,-73.886703,338.6,158.8782608695652
10003219,ERIC M TAYLOR CENTER,10-10 HAZEN ST,EAST ELMHURST,NY,11370,40.78968367500117,-73.88634059451499,LOCAL,NOT AVAILABLE,1851.0,OPEN,2022-01-07 15:27:25+00:00,2022-01-07 15:27:25+00:00,Bronx - IS74,NY,BRONX,40.814701,-73.886703,338.6,158.8782608695652
10003221,OTIS BANTUM CORRECTIONAL CENTER,16-00 HAZEN ST,EAST ELMHURST,NY,11370,40.7952770046376,-73.89011513769347,LOCAL,MAXIMUM,2000.0,OPEN,2022-01-07 15:27:25+00:00,2022-01-07 15:27:25+00:00,Bronx - IS74,NY,BRONX,40.814701,-73.886703,338.6,158.8782608695652
10003224,NORTH INFIRMARY COMMAND,15-00 HAZEN ST,EAST ELMHURST,NY,11370,40.795427172907935,-73.8867579630633,LOCAL,MAXIMUM,400.0,OPEN,2022-01-07 15:27:25+00:00,2022-01-07 15:27:25+00:00,Bronx - IS74,NY,BRONX,40.814701,-73.886703,338.6,158.8782608695652
10003226,ROBERT N DAVOREN COMPLEX,11-11 HAZEN ST,EAST ELMHURST,NY,11370,40.788924080812905,-73.88066101537756,LOCAL,NOT AVAILABLE,2238.0,OPEN,2022-01-07 15:27:25+00:00,2022-01-07 15:27:25+00:00,Bronx - IS74,NY,BRONX,40.814701,-73.886703,338.6,158.8782608695652
10002276,ADAMS COUNTY ADULT CORRECTIONAL COMPLEX,45 MAJOR BELL LANE,GETTYSBURG,PA,17325,39.85870808683407,-77.15780790597725,COUNTY,NOT AVAILABLE,449.0,OPEN,2022-01-07 15:27:25+00:00,2022-01-07 15:27:25+00:00,Arendtsville,PA,ADAMS,39.9233,-77.3081,160.8,99.40000000000002
10003105,FRANKLIN COUNTY JAIL,1804 OPPORTUNITY AVE,CHAMBERSBURG,PA,17201,40.001772773847186,-77.64446314492388,COUNTY,NOT AVAILABLE,468.0,OPEN,2022-01-07 15:27:25+00:00,2022-01-07 15:27:25+00:00,Arendtsville,PA,ADAMS,39.9233,-77.3081,160.8,99.40000000000002
10003106,ABRAXAS YOUTH CENTER,10058 SOUTH MOUNTAIN RD,SOUTH MOUNTAIN,PA,17261,39.84791510962931,-77.49491781115458,STATE,JUVENILE,72.0,OPEN,2022-01-07 15:27:25+00:00,2022-01-07 15:27:25+00:00,Arendtsville,PA,ADAMS,39.9233,-77.3081,160.8,99.40000000000002
10006641,SOUTH MOUNTAIN SECURE TREATMENT UNIT,10056 SOUTH MOUNTAIN ROAD,SOUTH MOUNTAIN,PA,17261,39.843240785139095,-77.49490398195813,STATE,JUVENILE,48.0,OPEN,2022-01-07 15:27:25+00:00,2022-01-07 15:27:25+00:00,Arendtsville,PA,ADAMS,39.9233,-77.3081,160.8,99.40000000000002
10006644,ABRAXAS LEADERSHIP DEVELOPMENT PROGRAM,10058 SOUTH MOUNTAIN ROAD,SOUTH MOUNTAIN,PA,17261,39.84420767083279,-77.49569277390484,STATE,JUVENILE,128.0,OPEN,2022-01-07 15:27:25+00:00,2022-01-07 15:27:25+00:00,Arendtsville,PA,ADAMS,39.9233,-77.3081,160.8,99.40000000000002
10002268,BEAVER COUNTY JAIL,6000 WOODLAWN BLVD,ALIQUIPPA,PA,15001,40.64594884502631,-80.24203691137812,COUNTY,NOT AVAILABLE,402.0,OPEN,2022-01-07 15:27:25+00:00,2022-01-07 15:27:25+00:00,Fort McIntosh,PA,BEAVER,40.691857,-80.299211,51.3,29.8125
10002275,BEDFORD COUNTY CORRECTIONAL FACILITY,425 IMLERTOWN RD,BEDFORD,PA,15522,40.03105162076989,-78.47669148327728,COUNTY,NOT AVAILABLE,181.0,OPEN,2022-01-07 15:27:25+00:00,2022-01-07 15:27:25+00:00,Johnstown,PA,CAMBRIA,40.3097,-78.9158,66.4,31.554166666666664
10006377,JOHNSTOWN CCC,301 WASHINGTON STREET,JOHNSTOWN,PA,15901,40.32830140164322,-78.92029841587963,STATE,MINIMUM,-999.0,OPEN,2022-01-07 15:27:25+00:00,2022-01-07 15:27:25+00:00,Johnstown,PA,CAMBRIA,40.3097,-78.9158,66.4,31.554166666666664
10003087,SEXUAL RESPONSIBILITY AND TREATMENT PROGRAM,121 LONGVIEW DR,TORRANCE,PA,15779,40.41666355464354,-79.24253342217683,STATE,JUVENILE,64.0,OPEN,2022-01-07 15:27:25+00:00,2022-01-07 15:27:25+00:00,Johnstown,PA,CAMBRIA,40.3097,-78.9158,66.4,31.554166666666664
10002266,CENTRE COUNTY CORRECTIONAL FACILITY,700 RISHEL HILL RD,BELLEFONTE,PA,16823,40.878855023376204,-77.77620813551351,COUNTY,MAXIMUM,397.0,OPEN,2022-01-07 15:27:25+00:00,2022-01-07 15:27:25+00:00,State College,PA,CENTRE,40.8114,-77.8769,210.6,123.45833333333333
10002265,CLEARFIELD COUNTY JAIL,115 21ST STREET,CLEARFIELD,PA,16830,41.01865934962796,-78.41180851305464,COUNTY,NOT AVAILABLE,139.0,OPEN,2022-01-07 15:27:25+00:00,2022-01-07 15:27:25+00:00,State College,PA,CENTRE,40.8114,-77.8769,210.6,123.45833333333333
10005225,CENTRAL COUNTIES YOUTH CENTER,148 PARADISE RD,BELLEFONTE,PA,16823,40.877885340290106,-77.78142195406606,COUNTY,JUVENILE,14.0,OPEN,2022-01-07 15:27:25+00:00,2022-01-07 15:27:25+00:00,State College,PA,CENTRE,40.8114,-77.8769,210.6,123.45833333333333
10001487,CLINTON COUNTY CORRECTIONAL FACILITY,58 PINE MOUNTAIN RD,MCELHATTAN,PA,17748,41.15103872540624,-77.34960998401958,COUNTY,MAXIMUM,300.0,OPEN,2022-01-07 15:27:25+00:00,2022-01-07 15:27:25+00:00,State College,PA,CENTRE,40.8114,-77.8769,210.6,123.45833333333333
10003066,USP ALLENWOOD,"RT. 15, 2 MILES N OF ALLENWOOD",ALLENWOOD,PA,17810,41.13386912249381,-76.92289807044916,FEDERAL,MAXIMUM,598.0,OPEN,2022-01-07 15:27:25+00:00,2022-01-07 15:27:25+00:00,State College,PA,CENTRE,40.8114,-77.8769,210.6,123.45833333333333
10003068,FCI ALLENWOOD MEDIUM,"RT. 15, 2 MILES N OF ALLENWOOD",WHITE DEER,PA,17810,41.12795944454801,-76.93305708738596,FEDERAL,MEDIUM,916.0,OPEN,2022-01-07 15:27:25+00:00,2022-01-07 15:27:25+00:00,State College,PA,CENTRE,40.8114,-77.8769,210.6,123.45833333333333
10003067,FCI ALLENWOOD LOW,"RT. 15, 2 MILES N OF ALLENWOOD",ALLENWOOD,PA,17810,41.12679716623308,-76.92503846470973,FEDERAL,MINIMUM,992.0,OPEN,2022-01-07 15:27:25+00:00,2022-01-07 15:27:25+00:00,State College,PA,CENTRE,40.8114,-77.8769,210.6,123.45833333333333
10003055,LYCOMING COUNTY PRISON,277 W 3RD ST,WILLIAMSPORT,PA,17701,41.23840172272102,-77.005758042484,COUNTY,NOT AVAILABLE,393.0,OPEN,2022-01-07 15:27:25+00:00,2022-01-07 15:27:25+00:00,State College,PA,CENTRE,40.8114,-77.8769,210.6,123.45833333333333
10000726,MIFFLIN COUNTY CORRECTIONAL FACILITY,103 W MARKET ST,LEWISTON,PA,17044,40.596768926060044,-77.57652553552775,COUNTY,NOT AVAILABLE,198.0,OPEN,2022-01-07 15:27:25+00:00,2022-01-07 15:27:25+00:00,State College,PA,CENTRE,40.8114,-77.8769,210.6,123.45833333333333
10000720,CI MOSHANNON VALLEY,555 GEO DRIVE,PHILIPSBURG,PA,16866,40.92087743409466,-78.24243087320387,FEDERAL,MINIMUM,1878.0,OPEN,2022-01-07 15:27:25+00:00,2022-01-07 15:27:25+00:00,State College,PA,CENTRE,40.8114,-77.8769,210.6,123.45833333333333
10001489,QUEHANNA BOOT CAMP,4395 QUEHANNA HWY,KARTHAUS,PA,16845,41.18482489695055,-78.14509460635043,STATE,MINIMUM,565.0,OPEN,2022-01-07 15:27:25+00:00,2022-01-07 15:27:25+00:00,State College,PA,CENTRE,40.8114,-77.8769,210.6,123.45833333333333
10006363,SCI BENNER TOWNSHIP,301 INSTITUTION DRIVE,BELLEFONTE,PA,16823,40.85940191725312,-77.77782870564596,STATE,MEDIUM,1900.0,OPEN,2022-01-07 15:27:25+00:00,2022-01-07 15:27:25+00:00,State College,PA,CENTRE,40.8114,-77.8769,210.6,123.45833333333333
10003054,SCI MUNCY,6454 STATE HIGHWAY 405,MUNCY,PA,17756,41.20320633273208,-76.82479449477535,STATE,MAXIMUM,1410.0,OPEN,2022-01-07 15:27:25+00:00,2022-01-07 15:27:25+00:00,State College,PA,CENTRE,40.8114,-77.8769,210.6,123.45833333333333
10003062,SCI ROCKVIEW,1 ROCKVIEW PLACE,BELLEFONTE,PA,16823,40.85071107719678,-77.77794282123374,STATE,MEDIUM,2283.0,OPEN,2022-01-07 15:27:25+00:00,2022-01-07 15:27:25+00:00,State College,PA,CENTRE,40.8114,-77.8769,210.6,123.45833333333333
10001495,CHESTER COUNTY PRISON,501 S WAWASET RD,WEST CHESTER,PA,19382,39.9081963519678,-75.65972234036118,COUNTY,MAXIMUM,1137.0,OPEN,2022-01-07 15:27:25+00:00,2022-01-07 15:27:25+00:00,New Garden,PA,CHESTER,39.8344,-75.7678,332.1,154.85833333333332
10002277,CHESTER COUNTY YOUTH CENTER,505 S WAWASET RD,WEST CHESTER,PA,19832,39.905065641469285,-75.66235646176733,COUNTY,JUVENILE,60.0,OPEN,2022-01-07 15:27:25+00:00,2022-01-07 15:27:25+00:00,New Garden,PA,CHESTER,39.8344,-75.7678,332.1,154.85833333333332
10003104,CUMBERLAND COUNTY PRISON,1101 CLAREMONT RD,CARLISLE,PA,17015,40.214850586901974,-77.16182149661428,COUNTY,NOT AVAILABLE,720.0,OPEN,2022-01-07 15:27:25+00:00,2022-01-07 15:27:25+00:00,Carlisle,PA,CUMBERLAND,40.2464,-77.1867,324.5,122.8
10003097,PERRY COUNTY PRISON,300 S CARLISLE ST,NEW BLOOMFIELD,PA,17068,40.41394768589281,-77.186921652223,COUNTY,NOT AVAILABLE,135.0,OPEN,2022-01-07 15:27:25+00:00,2022-01-07 15:27:25+00:00,Carlisle,PA,CUMBERLAND,40.2464,-77.1867,324.5,122.8
10001492,LOYSVILLE YOUTH DEVELOPMENT CENTER,10 OPPORTUNITY DR,LOYSVILLE,PA,17047,40.370341167036564,-77.34896539239219,STATE,JUVENILE,108.0,OPEN,2022-01-07 15:27:25+00:00,2022-01-07 15:27:25+00:00,Carlisle,PA,CUMBERLAND,40.2464,-77.1867,324.5,122.8
10003043,ERIE COUNTY PRISON,1618 ASH ST,ERIE,PA,16503,42.12412913157327,-80.06709470878953,COUNTY,MAXIMUM,902.0,OPEN,2022-01-07 15:27:25+00:00,2022-01-07 15:27:25+00:00,Erie,PA,ERIE,42.1428,-80.0372,55.2,35.612500000000004
10003042,EDMUND L. THOMAS ADOLESCENT CENTER,4728 LAKE PLEASANT RD,ERIE,PA,16504,42.10066193125282,-80.04099926488094,COUNTY,JUVENILE,28.0,OPEN,2022-01-07 15:27:25+00:00,2022-01-07 15:27:25+00:00,Erie,PA,ERIE,42.1428,-80.0372,55.2,35.612500000000004
10000760,LAKEVIEW SHOCK INCARCERATION CF - ANNEX,9300 LAKE AVE,BROCTON,NY,14716,42.40443832084723,-79.43758461843137,STATE,MEDIUM,160.0,OPEN,2022-01-07 15:27:25+00:00,2022-01-07 15:27:25+00:00,Erie,PA,ERIE,42.1428,-80.0372,55.2,35.612500000000004
10002264,CRAWFORD COUNTY CORRECTIONAL FACILITY,2100 INDEPENDENCE DR,SAEGERTOWN,PA,16433,41.70660898629537,-80.12887179721376,COUNTY,NOT AVAILABLE,282.0,OPEN,2022-01-07 15:27:25+00:00,2022-01-07 15:27:25+00:00,Erie,PA,ERIE,42.1428,-80.0372,55.2,35.612500000000004
10003046,WARREN COUNTY PRISON,407 MARKET ST,WARREN,PA,16365,41.84873083666278,-79.14693469214906,COUNTY,NOT AVAILABLE,139.0,OPEN,2022-01-07 15:27:25+00:00,2022-01-07 15:27:25+00:00,Erie,PA,ERIE,42.1428,-80.0372,55.2,35.612500000000004
10000759,LAKEVIEW SHOCK INCARCERATION CORRECTIONAL FACILITY,9300 LAKE AVE,BROCTON,NY,14716,42.40795173298349,-79.43456760402155,STATE,MINIMUM,862.0,OPEN,2022-01-07 15:27:25+00:00,2022-01-07 15:27:25+00:00,Erie,PA,ERIE,42.1428,-80.0372,55.2,35.612500000000004
10006376,ERIE CCC,137 WEST 2ND STREET,ERIE,PA,16507,42.13192439116047,-80.09046900974383,STATE,MINIMUM,-999.0,OPEN,2022-01-07 15:27:25+00:00,2022-01-07 15:27:25+00:00,Erie,PA,ERIE,42.1428,-80.0372,55.2,35.612500000000004
10006172,FCI MCKEAN CAMP,6975 ROUTE 59,LEWIS RUN,PA,16738,41.79858483702656,-78.69094835711084,FEDERAL,MINIMUM,292.0,OPEN,2022-01-07 15:27:25+00:00,2022-01-07 15:27:25+00:00,Erie,PA,ERIE,42.1428,-80.0372,55.2,35.612500000000004
10003044,ERIE COUNTY PRE-RELEASE CENTER,450 E 16TH ST,ERIE,PA,16503,42.124443103334414,-80.06889167652008,COUNTY,MINIMUM,208.0,OPEN,2022-01-07 15:27:25+00:00,2022-01-07 15:27:25+00:00,Erie,PA,ERIE,42.1428,-80.0372,55.2,35.612500000000004
10001484,FCI MCKEAN,6975 ROUTE 59,LEWIS RUN,PA,16738,41.79800421333831,-78.68529746631616,FEDERAL,MEDIUM,856.0,OPEN,2022-01-07 15:27:25+00:00,2022-01-07 15:27:25+00:00,Erie,PA,ERIE,42.1428,-80.0372,55.2,35.612500000000004
10002288,CHAUTAUQUA COUNTY JAIL,15 E CHAUTAUQUA ST,MAYVILLE,NY,14757,42.25444761837162,-79.50343541357593,COUNTY,NOT AVAILABLE,-999.0,OPEN,2022-01-07 15:27:25+00:00,2022-01-07 15:27:25+00:00,Erie,PA,ERIE,42.1428,-80.0372,55.2,35.612500000000004
10000709,SCI ALBION,10745 STATE RT 18,ALBION,PA,16475,41.87872711720163,-80.36314055392448,STATE,CLOSE,2152.0,OPEN,2022-01-07 15:27:25+00:00,2022-01-07 15:27:25+00:00,Erie,PA,ERIE,42.1428,-80.0372,55.2,35.612500000000004
10003048,SCI CAMBRIDGE SPRINGS,451 FULLERTON AVE,CAMBRIDGE SPRINGS,PA,16403,41.79709258671794,-80.05407360986946,STATE,MINIMUM,1018.0,OPEN,2022-01-07 15:27:25+00:00,2022-01-07 15:27:25+00:00,Erie,PA,ERIE,42.1428,-80.0372,55.2,35.612500000000004
10003072,NORTHAMPTON COUNTY JUVENILE JUSTICE CENTER,650 FERRY ST,EASTON,PA,18042,40.68900204179413,-75.21596407798705,COUNTY,JUVENILE,84.0,OPEN,2022-01-07 15:27:25+00:00,2022-01-07 15:27:25+00:00,Freemansburg,PA,NORTHAMPTON,40.6281,-75.3411,470.8,252.50833333333335
10006846,WEST HOMESTEAD CENTER,225 WEST SEVENTH AVENUE,WEST HOMESTEAD,PA,15120,40.40505346358489,-79.91506367685669,COUNTY,NOT AVAILABLE,56.0,OPEN,2022-01-07 15:27:25+00:00,2022-01-07 15:27:25+00:00,North Braddock,PA,ALLEGHENY,40.402267,-79.860942,56.7,31.64166666666667
10003098,BUCKS COUNTY CORRECTIONAL FACILITY,1730 S EASTON RD,DOYLESTOWN,PA,18901,40.276014954091956,-75.13148288049251,COUNTY,MAXIMUM,764.0,OPEN,2022-01-07 15:27:25+00:00,2022-01-07 15:27:25+00:00,Norristown,PA,MONTGOMERY,40.1122,-75.3092,440.6,201.97500000000002
10005234,BUCKS COUNTY YOUTH CENTER,1750 EASTON RD,DOYLESTOWN,PA,18901,40.27831947549206,-75.13005616502926,COUNTY,JUVENILE,54.0,OPEN,2022-01-07 15:27:25+00:00,2022-01-07 15:27:25+00:00,Norristown,PA,MONTGOMERY,40.1122,-75.3092,440.6,201.97500000000002
10003102,MONTGOMERY COUNTY CORRECTIONAL FACILITY,60 EAGLEVILLE RD,EAGLEVILLE,PA,19403,40.158949580582274,-75.42341625964345,COUNTY,MAXIMUM,2080.0,OPEN,2022-01-07 15:27:25+00:00,2022-01-07 15:27:25+00:00,Norristown,PA,MONTGOMERY,40.1122,-75.3092,440.6,201.97500000000002
10002274,BUCKS COUNTY WOMENS COMMUNITY CORRECTIONS CENTER,1730 S EASTON RD,DOYLESTOWN,PA,18901,40.27492889207102,-75.13420257011057,COUNTY,MINIMUM,50.0,OPEN,2022-01-07 15:27:25+00:00,2022-01-07 15:27:25+00:00,Norristown,PA,MONTGOMERY,40.1122,-75.3092,440.6,201.97500000000002
10002273,BUCKS COUNTY MEN'S COMMUNITY CORRECTIONS,1730 S EASTON RD,DOYLESTOWN,PA,18901,40.27426778535981,-75.1361244045268,COUNTY,MINIMUM,270.0,OPEN,2022-01-07 15:27:25+00:00,2022-01-07 15:27:25+00:00,Norristown,PA,MONTGOMERY,40.1122,-75.3092,440.6,201.97500000000002
10003103,MONTGOMERY COUNTY YOUTH CENTER,540 PORT INDIAN RD,NORRISTOWN,PA,19403,40.12904940586361,-75.38949152040412,COUNTY,JUVENILE,48.0,OPEN,2022-01-07 15:27:25+00:00,2022-01-07 15:27:25+00:00,Norristown,PA,MONTGOMERY,40.1122,-75.3092,440.6,201.97500000000002
10002269,CAMBRIA COUNTY PRISON,425 MANOR DRIVE,EBENSBURG,PA,15931,40.484502756719415,-78.70149732531641,COUNTY,MAXIMUM,495.0,OPEN,2022-01-07 15:27:25+00:00,2022-01-07 15:27:25+00:00,Strongstown,PA,INDIANA,40.5633,-78.92,84.0,43.74166666666667
10005228,INDIANA COUNTY JAIL,665 HOOD SCHOOL RD,INDIANA,PA,15701,40.64485965416393,-79.09611523384214,COUNTY,NOT AVAILABLE,256.0,OPEN,2022-01-07 15:27:25+00:00,2022-01-07 15:27:25+00:00,Strongstown,PA,INDIANA,40.5633,-78.92,84.0,43.74166666666667
10005229,ADELPHOI VILLAGE-EBENSBURG,557 MANOR DR,EBENSBURG,PA,15931,40.49005945546156,-78.69689390295626,COUNTY,JUVENILE,12.0,OPEN,2022-01-07 15:27:25+00:00,2022-01-07 15:27:25+00:00,Strongstown,PA,INDIANA,40.5633,-78.92,84.0,43.74166666666667
10003077,SCI PINE GROVE,189 FYOCK RD,INDIANA,PA,15701,40.647725095169136,-79.10022326962991,STATE,MAXIMUM,1163.0,OPEN,2022-01-07 15:27:25+00:00,2022-01-07 15:27:25+00:00,Strongstown,PA,INDIANA,40.5633,-78.92,84.0,43.74166666666667
10003051,ELK COUNTY PRISON,225 CENTER ST,RIDGWAY,PA,15853,41.42103643158617,-78.72939846688217,COUNTY,NOT AVAILABLE,79.0,OPEN,2022-01-07 15:27:25+00:00,2022-01-07 15:27:25+00:00,Strongstown,PA,INDIANA,40.5633,-78.92,84.0,43.74166666666667
10002267,CARBON COUNTY CORRECTIONAL FACILITY,331 BROAD ST,NESQUEHONING,PA,18240,40.87746487833855,-75.78174006678188,COUNTY,MAXIMUM,223.0,OPEN,2022-01-07 15:27:25+00:00,2022-01-07 15:27:25+00:00,Allentown,PA,LEHIGH,40.6119,-75.4325,437.6,239.29583333333335
10003080,LEHIGH COUNTY PRISON,38 N 4TH ST,ALLENTOWN,PA,18102,40.604898408788046,-75.46640336453697,COUNTY,MAXIMUM,1270.0,OPEN,2022-01-07 15:27:25+00:00,2022-01-07 15:27:25+00:00,Allentown,PA,LEHIGH,40.6119,-75.4325,437.6,239.29583333333335
10003081,LEHIGH COUNTY COMMUNITY CORRECTIONS CENTER,1600 RIVERSIDE DR,BETHLEHEM,PA,18016,40.612469243424464,-75.41265630356779,COUNTY,MINIMUM,400.0,OPEN,2022-01-07 15:27:25+00:00,2022-01-07 15:27:25+00:00,Allentown,PA,LEHIGH,40.6119,-75.4325,437.6,239.29583333333335
10003118,GEORGE W HILL CORRECTIONAL FACILITY,500 CHEYNEY RD,THORNTON,PA,19373,39.90291083206808,-75.51405878754494,COUNTY,NOT AVAILABLE,1863.0,OPEN,2022-01-07 15:27:25+00:00,2022-01-07 15:27:25+00:00,Marcus Hook,PA,DELAWARE,39.818715,-75.413973,407.0,181.39583333333334
10000742,GLEN MILLS SCHOOL,185 GLEN MILLS RD.,GLEN MILLS,PA,19342,39.91738705143342,-75.49808222813215,LOCAL,JUVENILE,900.0,OPEN,2022-01-07 15:27:25+00:00,2022-01-07 15:27:25+00:00,Marcus Hook,PA,DELAWARE,39.818715,-75.413973,407.0,181.39583333333334
10003099,LEBANON COUNTY CORRECTIONAL FACILITY,730 E WALNUT ST,LEBANON,PA,17042,40.33802191106334,-76.39662791618751,COUNTY,NOT AVAILABLE,645.0,OPEN,2022-01-07 15:27:25+00:00,2022-01-07 15:27:25+00:00,Lebanon,PA,LEBANON,40.338516,-76.394788,394.1,180.97916666666666
10003075,FCI SCHUYLKILL,INTERSTATE 81 & 901 W,MINERSVILLE,PA,17954,40.73280461464753,-76.3438947728844,FEDERAL,MEDIUM,826.0,OPEN,2022-01-07 15:27:25+00:00,2022-01-07 15:27:25+00:00,Lebanon,PA,LEBANON,40.338516,-76.394788,394.1,180.97916666666666
10003076,FCI SCHUYLKILL CAMP,INTERSTATE 81 & 901 W,MINERSVILLE,PA,17954,40.732013085159004,-76.34949929019751,FEDERAL,MINIMUM,296.0,OPEN,2022-01-07 15:27:25+00:00,2022-01-07 15:27:25+00:00,Lebanon,PA,LEBANON,40.338516,-76.394788,394.1,180.97916666666666
10001488,COLUMBIA COUNTY PRISON,721 IRON ST,BLOOMSBURG,PA,17815,40.99843716715452,-76.45029372573127,COUNTY,NOT AVAILABLE,247.0,OPEN,2022-01-07 15:27:25+00:00,2022-01-07 15:27:25+00:00,Lebanon,PA,LEBANON,40.338516,-76.394788,394.1,180.97916666666666
10005226,MONTOUR COUNTY PRISON,117 CHURCH ST,DANVILLE,PA,17821,40.95897403759419,-76.61601149364603,COUNTY,NOT AVAILABLE,46.0,OPEN,2022-01-07 15:27:25+00:00,2022-01-07 15:27:25+00:00,Lebanon,PA,LEBANON,40.338516,-76.394788,394.1,180.97916666666666
10003064,SCI COAL TOWNSHIP,1 KELLEY DR,COAL TOWNSHIP,PA,17866,40.806450199331074,-76.5518113373872,STATE,MEDIUM,2153.0,OPEN,2022-01-07 15:27:25+00:00,2022-01-07 15:27:25+00:00,Lebanon,PA,LEBANON,40.338516,-76.394788,394.1,180.97916666666666
10005227,NORTH CENTRAL SECURE TREATMENT UNIT,36 KIRKBRIDE DRIVE,DANVILLE,PA,17821,40.94788241097812,-76.59832001298261,STATE,JUVENILE,115.0,OPEN,2022-01-07 15:27:25+00:00,2022-01-07 15:27:25+00:00,Lebanon,PA,LEBANON,40.338516,-76.394788,394.1,180.97916666666666
10003063,MONROE COUNTY CORRECTIONAL FACILITY,4250 MANOR DR,STROUDSBURG,PA,18360,40.95002312183986,-75.2894676603841,COUNTY,NOT AVAILABLE,409.0,OPEN,2022-01-07 15:27:25+00:00,2022-01-07 15:27:25+00:00,Columbia,NJ,WARREN,40.924606,-75.067825,235.5,118.79583333333333
10003987,WARREN COUNTY CORRECTIONAL CENTER,175 COUNTY ROUTE 519 S,BELVIDERE,NJ,07823,40.80247120670455,-75.08087059189337,COUNTY,MAXIMUM,176.0,OPEN,2022-01-07 15:27:25+00:00,2022-01-07 15:27:25+00:00,Columbia,NJ,WARREN,40.924606,-75.067825,235.5,118.79583333333333
10003983,KEOGH DWYER CORRECTIONAL FACILITY,41 HIGH ST,NEWTON,NJ,07860,41.05890835242875,-74.75491643931811,COUNTY,NOT AVAILABLE,225.0,OPEN,2022-01-07 15:27:25+00:00,2022-01-07 15:27:25+00:00,Columbia,NJ,WARREN,40.924606,-75.067825,235.5,118.79583333333333
10006609,WARREN RESIDENTIAL COMMUNITY HOME,509 BRASS CASTLE ROAD,OXFORD,NJ,07863,40.782948562661105,-75.02798513950698,STATE,JUVENILE,30.0,OPEN,2022-01-07 15:27:25+00:00,2022-01-07 15:27:25+00:00,Columbia,NJ,WARREN,40.924606,-75.067825,235.5,118.79583333333333
10003113,ALTERNATIVE & SPECIAL DETENTION CENTER(ASD),8101 STATE RD,PHILADELPHIA,PA,19136,40.02980240647328,-75.01597637886955,LOCAL,MINIMUM,860.0,OPEN,2022-01-07 15:27:25+00:00,2022-01-07 15:27:25+00:00,TOR,PA,PHILADELPHIA,40.054171,-74.985166,510.1,235.71666666666667
10003114,PHILADELPHIA DETENTION CENTER,8201 STATE RD,PHILADELPHIA,PA,19136,40.03306383671403,-75.01532460155447,LOCAL,MINIMUM,1677.0,OPEN,2022-01-07 15:27:25+00:00,2022-01-07 15:27:25+00:00,TOR,PA,PHILADELPHIA,40.054171,-74.985166,510.1,235.71666666666667
10002304,BURLINGTON COUNTY DETENTION CENTER,54 GRANT ST,MOUNT HOLLY,NJ,08060,39.996071499082454,-74.7909177596235,COUNTY,NOT AVAILABLE,625.0,OPEN,2022-01-07 15:27:25+00:00,2022-01-07 15:27:25+00:00,TOR,PA,PHILADELPHIA,40.054171,-74.985166,510.1,235.71666666666667
10003110,CURRAN- FROMHOLD CORRECTIONAL FACILITY (CFCF),7901 STATE RD,PHILADELPHIA,PA,19136,40.0297228424366,-75.01975607203867,LOCAL,CLOSE,2560.0,OPEN,2022-01-07 15:27:25+00:00,2022-01-07 15:27:25+00:00,TOR,PA,PHILADELPHIA,40.054171,-74.985166,510.1,235.71666666666667
10003112,RIVERSIDE CORRECTIONAL FACILITY,8151 STATE ROAD,PHILADELPHIA,PA,19136,40.02934750069899,-75.01708520957357,LOCAL,CLOSE,824.0,OPEN,2022-01-07 15:27:25+00:00,2022-01-07 15:27:25+00:00,TOR,PA,PHILADELPHIA,40.054171,-74.985166,510.1,235.71666666666667
10003115,PHILADELPHIA INDUSTRIAL CORRECTIONAL CENTER,8301 STATE RD,PHILADELPHIA,PA,19136,40.034678825699714,-75.01356579010078,LOCAL,CLOSE,1230.0,OPEN,2022-01-07 15:27:25+00:00,2022-01-07 15:27:25+00:00,TOR,PA,PHILADELPHIA,40.054171,-74.985166,510.1,235.71666666666667
10006188,PHILADELPHIA JUVENILE JUSTICE SERVICES CENTER,91 N 48TH ST,PHILADELPHIA,PA,19139,39.961450241729295,-75.21569115950228,COUNTY,JUVENILE,150.0,OPEN,2022-01-07 15:27:25+00:00,2022-01-07 15:27:25+00:00,RIT,PA,PHILADELPHIA,39.922516,-75.186783,388.2,181.225
10003088,WESTMORELAND COUNTY PRISON,3000 S GRANDE BLVD,GREENSBURG,PA,15601,40.27343900032906,-79.56089751708022,COUNTY,NOT AVAILABLE,704.0,OPEN,2022-01-07 15:27:25+00:00,2022-01-07 15:27:25+00:00,Liberty (SAHS),PA,ALLEGHENY,40.323898,-79.868301,56.0,26.958333333333332
10005230,WESTMORELAND COUNTY REGIONAL YOUTH SERVICES CENTER,2771 S GRANDE BLVD,GREENSBURG,PA,15601,40.27323777757606,-79.55933495310482,COUNTY,JUVENILE,24.0,OPEN,2022-01-07 15:27:25+00:00,2022-01-07 15:27:25+00:00,Liberty (SAHS),PA,ALLEGHENY,40.323898,-79.868301,56.0,26.958333333333332
10005236,YORK COUNTY YOUTH DEVELOPMENT CENTER,3564 HEINDEL RD,YORK,PA,17402,39.987983088690065,-76.65587765147504,COUNTY,JUVENILE,24.0,OPEN,2022-01-07 15:27:25+00:00,2022-01-07 15:27:25+00:00,York,PA,YORK,39.9653,-76.6994,221.9,117.325
10001494,YORK COUNTY PRISON,3400 CONCORD RD,YORK,PA,17402,39.98648496856252,-76.66131226005393,COUNTY,MAXIMUM,2676.0,OPEN,2022-01-07 15:27:25+00:00,2022-01-07 15:27:25+00:00,York,PA,YORK,39.9653,-76.6994,221.9,117.325
10006375,YORK CCC,317 WEST MARKET STREET,YORK,PA,17401,39.96031315082488,-76.73540313070718,STATE,MINIMUM,-999.0,OPEN,2022-01-07 15:27:25+00:00,2022-01-07 15:27:25+00:00,York,PA,YORK,39.9653,-76.6994,221.9,117.325
10006365,PHILADELPHIA CCC #4,1628-1630 NORTH 15TH STREET,PHILADELPHIA,PA,19121,39.97854177349213,-75.15989189369422,STATE,MINIMUM,-999.0,OPEN,2022-01-07 15:27:25+00:00,2022-01-07 15:27:25+00:00,FAB,PA,PHILADELPHIA,39.9603,-75.1424,441.9,197.57500000000002
10006373,DIAGNOSTIC AND REHABILITATION CENTER,3200 HENRY AVENUE,PHILADELPHIA,PA,19129,40.00923805719254,-75.1816509042778,STATE,MINIMUM,-999.0,OPEN,2022-01-07 15:27:25+00:00,2022-01-07 15:27:25+00:00,FAB,PA,PHILADELPHIA,39.9603,-75.1424,441.9,197.57500000000002
10006364,PHILADELPHIA CCC #2,407 NORTH 8TH STREET,PHILADELPHIA,PA,19123,39.958899097898296,-75.1516339965306,STATE,MINIMUM,-999.0,OPEN,2022-01-07 15:27:25+00:00,2022-01-07 15:27:25+00:00,FAB,PA,PHILADELPHIA,39.9603,-75.1424,441.9,197.57500000000002
10003116,FDC PHILADELPHIA,700 ARCH ST,PHILADELPHIA,PA,19106,39.95258147762492,-75.1520314280168,FEDERAL,MAXIMUM,740.0,OPEN,2022-01-07 15:27:25+00:00,2022-01-07 15:27:25+00:00,FAB,PA,PHILADELPHIA,39.9603,-75.1424,441.9,197.57500000000002
10003138,WATERTOWN CORRECTIONAL FACILITY,23147 SWAN RD,WATERTOWN,NY,13601,43.924312779101534,-75.9079872678613,STATE,MEDIUM,670.0,OPEN,2022-01-07 15:27:25+00:00,2022-01-07 15:27:25+00:00,Kingston,CC,ONTARIO,44.219867,-76.521128,463.0,209.83333333333334
10003137,JEFFERSON COUNTY CORRECTIONAL FACILITY,753 WATERMAN DR,WATERTOWN,NY,13601,43.97247084674982,-75.92839007741038,COUNTY,NOT AVAILABLE,196.0,OPEN,2022-01-07 15:27:25+00:00,2022-01-07 15:27:25+00:00,Kingston,CC,ONTARIO,44.219867,-76.521128,463.0,209.83333333333334
10000744,CAPE VINCENT CORRECTIONAL FACILITY,36560 STATE ROUTE 12E,CAPE VINCENT,NY,13618,44.197833207744594,-76.18797612349621,STATE,MEDIUM,882.0,OPEN,2022-01-07 15:27:25+00:00,2022-01-07 15:27:25+00:00,Kingston,CC,ONTARIO,44.219867,-76.521128,463.0,209.83333333333334
10003122,GOUVERNEUR CORRECTIONAL FACILITY,112 SCOTCH SETTLEMENT RD,GOUVERNEUR,NY,13642,44.34018934828235,-75.44188500463862,STATE,MEDIUM,1082.0,OPEN,2022-01-07 15:27:25+00:00,2022-01-07 15:27:25+00:00,Kingston,CC,ONTARIO,44.219867,-76.521128,463.0,209.83333333333334
10005789,CHILDREN'S HOME OF JEFFERSON COUNTY,1704 STATE STREET,WATERTOWN,NY,13601,43.966074897222406,-75.88028950182292,COUNTY,JUVENILE,-999.0,OPEN,2022-01-07 15:27:25+00:00,2022-01-07 15:27:25+00:00,Kingston,CC,ONTARIO,44.219867,-76.521128,463.0,209.83333333333334
10006833,UNION COUNTY JUVENILE DETENTION CENTER,1075 EDWARD STREET,LINDEN,NJ,07036,40.61058900585681,-74.25363962957182,COUNTY,JUVENILE,-999.0,OPEN,2022-01-07 15:27:25+00:00,2022-01-07 15:27:25+00:00,Rahway PM,NJ,UNION,40.603943,-74.276176,315.6,147.44583333333333
10002298,ADULT DIAGNOSTIC AND TREATMENT CENTER,"8 PRODUCTION WAY, P.O. BOX 190",WOODBRIDGE,NJ,07095,40.58959312488446,-74.27158103647184,STATE,NOT AVAILABLE,512.0,OPEN,2022-01-07 15:27:25+00:00,2022-01-07 15:27:25+00:00,Rahway PM,NJ,UNION,40.603943,-74.276176,315.6,147.44583333333333
10003996,EAST JERSEY STATE PRISON,1100 WOODBRIDGE RD,RAHWAY,NJ,07065,40.590564024132924,-74.26959748257694,STATE,MAXIMUM,1227.0,OPEN,2022-01-07 15:27:25+00:00,2022-01-07 15:27:25+00:00,Rahway PM,NJ,UNION,40.603943,-74.276176,315.6,147.44583333333333
10002296,MORRIS COUNTY CORRECTIONAL FACILITY,43 JOHN ST,MORRISTOWN,NJ,07960,40.80348090069923,-74.46061302117326,COUNTY,MAXIMUM,524.0,OPEN,2022-01-07 15:27:25+00:00,2022-01-07 15:27:25+00:00,Rahway PM,NJ,UNION,40.603943,-74.276176,315.6,147.44583333333333
10001518,BAYSIDE STATE PRISON FARM,4293 STATE ROUTE 47,LEESBURG,NJ,08327,39.234796549194805,-74.96190323257453,STATE,MINIMUM,-999.0,OPEN,2022-01-07 15:27:25+00:00,2022-01-07 15:27:25+00:00,Millville,NJ,CUMBERLAND,39.422272,-75.0252,204.8,94.88823529411764
10004018,BAYSIDE STATE PRISON,4293 RTE 47,LEESBURG,NJ,08327,39.24379686653736,-74.95144901985,STATE,MEDIUM,-999.0,OPEN,2022-01-07 15:27:25+00:00,2022-01-07 15:27:25+00:00,Millville,NJ,CUMBERLAND,39.422272,-75.0252,204.8,94.88823529411764
10002305,BAYSIDE STATE PRISON - ANCORA,301 SPRING GARDEN RD,HAMMONDTON,NJ,08037,39.68151637176472,-74.86546267711621,STATE,MINIMUM,250.0,OPEN,2022-01-07 15:27:25+00:00,2022-01-07 15:27:25+00:00,Millville,NJ,CUMBERLAND,39.422272,-75.0252,204.8,94.88823529411764
10004017,SOUTHERN STATE CORRECTIONAL FACILITY,4295 N DELSEA DR,DELMONT,NJ,08314,39.234648514902396,-74.95441994847431,STATE,MEDIUM,1352.0,OPEN,2022-01-07 15:27:25+00:00,2022-01-07 15:27:25+00:00,Millville,NJ,CUMBERLAND,39.422272,-75.0252,204.8,94.88823529411764
10001519,SOUTH WOODS STATE PRISON,215 S BURLINGTON RD,BRIDGETON,NJ,08302,39.413085609445,-75.20767164430629,STATE,MEDIUM,3188.0,OPEN,2022-01-07 15:27:25+00:00,2022-01-07 15:27:25+00:00,Millville,NJ,CUMBERLAND,39.422272,-75.0252,204.8,94.88823529411764
10004016,CUMBERLAND COUNTY JAIL,54 W BROAD ST,BRIDGETON,NJ,08302,39.427090710547134,-75.23888668395323,COUNTY,MEDIUM,550.0,OPEN,2022-01-07 15:27:25+00:00,2022-01-07 15:27:25+00:00,Millville,NJ,CUMBERLAND,39.422272,-75.0252,204.8,94.88823529411764
10004020,CUMBERLAND COUNTY JUVENILE DETENTION CENTER,135 SUNNYSLOPE DR,BRIDGETON,NJ,08302,39.41266514459184,-75.26087764127024,COUNTY,JUVENILE,46.0,OPEN,2022-01-07 15:27:25+00:00,2022-01-07 15:27:25+00:00,Millville,NJ,CUMBERLAND,39.422272,-75.0252,204.8,94.88823529411764
10006599,ANCORA PSYCHIATRIC HOSPITAL - HOLLY HALL,301 SPRING GARDEN ROAD,HAMMONTON,NJ,08037,39.68016486177311,-74.8633383091414,STATE,NOT AVAILABLE,111.0,OPEN,2022-01-07 15:27:25+00:00,2022-01-07 15:27:25+00:00,Millville,NJ,CUMBERLAND,39.422272,-75.0252,204.8,94.88823529411764
10006607,VINELAND PREPARATORY ACADEMY,2000 MAPLE AVENUE,VINELAND,NJ,08361,39.49301465176849,-74.98799734468142,STATE,JUVENILE,60.0,OPEN,2022-01-07 15:27:25+00:00,2022-01-07 15:27:25+00:00,Millville,NJ,CUMBERLAND,39.422272,-75.0252,204.8,94.88823529411764
10004019,FCI FAIRTON CAMP,655 FAIRTON MILLVILLE RD,FAIRTON,NJ,08320,39.383292923602745,-75.15624807517715,FEDERAL,MINIMUM,104.0,OPEN,2022-01-07 15:27:25+00:00,2022-01-07 15:27:25+00:00,Millville,NJ,CUMBERLAND,39.422272,-75.0252,204.8,94.88823529411764
10001520,FCI FAIRTON,655 FAIRTON MILLVILLE RD,FAIRTON,NJ,08320,39.38482608467495,-75.16020167019946,FEDERAL,MEDIUM,878.0,OPEN,2022-01-07 15:27:25+00:00,2022-01-07 15:27:25+00:00,Millville,NJ,CUMBERLAND,39.422272,-75.0252,204.8,94.88823529411764
10004021,CAPE MAY COUNTY CORRECTIONAL CENTER,125 CERST HAVEN ROAD,CAPE MAY COURT HOUSE,NJ,08210,39.09832097673855,-74.80275641377105,COUNTY,MAXIMUM,188.0,OPEN,2022-01-07 15:27:25+00:00,2022-01-07 15:27:25+00:00,Millville,NJ,CUMBERLAND,39.422272,-75.0252,204.8,94.88823529411764
10003135,FCI RAY BROOK,128 RAY BROOK RD,RAY BROOK,NY,12977,44.290320027582425,-74.09284982035032,FEDERAL,MEDIUM,749.0,OPEN,2022-01-07 15:27:25+00:00,2022-01-07 15:27:25+00:00,Whiteface Mtn,NY,ESSEX,44.39308,-73.8589,52.2,28.3
10003133,ESSEX COUNTY CORRECTIONAL FACILITY,702 STOWERSVILLE RD,LEWIS,NY,12950,44.28209009806413,-73.53668230181343,COUNTY,NOT AVAILABLE,-999.0,OPEN,2022-01-07 15:27:25+00:00,2022-01-07 15:27:25+00:00,Whiteface Mtn,NY,ESSEX,44.39308,-73.8589,52.2,28.3
10003128,CLINTON CORRECTIONAL FACILITY - ANNEX,1074 RT. 374,DANNEMORA,NY,12929,44.7248493215263,-73.7171129186466,STATE,MAXIMUM,828.0,OPEN,2022-01-07 15:27:25+00:00,2022-01-07 15:27:25+00:00,Whiteface Mtn,NY,ESSEX,44.39308,-73.8589,52.2,28.3
10003127,CLINTON CORRECTIONAL FACILITY - MAIN,1156 RT. 374,DANNEMORA,NY,12929,44.72355586308686,-73.72131851813366,STATE,MAXIMUM,2852.0,OPEN,2022-01-07 15:27:25+00:00,2022-01-07 15:27:25+00:00,Whiteface Mtn,NY,ESSEX,44.39308,-73.8589,52.2,28.3
10003134,ADIRONDACK CORRECTIONAL FACILITY,196 RAY BROOK RD,RAY BROOK,NY,12977,44.29598089166471,-74.09147652083162,STATE,MEDIUM,558.0,OPEN,2022-01-07 15:27:25+00:00,2022-01-07 15:27:25+00:00,Whiteface Mtn,NY,ESSEX,44.39308,-73.8589,52.2,28.3
10003136,MORIAH SHOCK INCARCERATION CORRECTIONAL FACILITY,75 BURHART LANE,MINEVILLE,NY,12956,44.10750003914003,-73.5332490276961,STATE,MINIMUM,300.0,OPEN,2022-01-07 15:27:25+00:00,2022-01-07 15:27:25+00:00,Whiteface Mtn,NY,ESSEX,44.39308,-73.8589,52.2,28.3
10003202,FCI OTISVILLE,TWO MILE DR,OTISVILLE,NY,10963,41.49661894952123,-74.5275434434776,FEDERAL,MEDIUM,897.0,OPEN,2022-01-07 15:27:25+00:00,2022-01-07 15:27:25+00:00,Newburgh,NY,ORANGE,41.4994,-74.0097,179.3,101.3913043478261
10003196,ULSTER CORRECTIONAL FACILITY,750 BERME RD,NAPANOCH,NY,12458,41.74333048630708,-74.35655135699048,STATE,MEDIUM,882.0,OPEN,2022-01-07 15:27:25+00:00,2022-01-07 15:27:25+00:00,Newburgh,NY,ORANGE,41.4994,-74.0097,179.3,101.3913043478261
10003200,SULLIVAN CORRECTIONAL FACILITY,325 RIVERSIDE DR,FALLSBURG,NY,12733,41.742929204690775,-74.59005667269605,STATE,MAXIMUM,566.0,OPEN,2022-01-07 15:27:25+00:00,2022-01-07 15:27:25+00:00,Newburgh,NY,ORANGE,41.4994,-74.0097,179.3,101.3913043478261
10001505,SULLIVAN COUNTY JAIL,2 BUSHNELL AVE,MONTICELLO,NY,12701,41.655950235886465,-74.68411445888597,COUNTY,NOT AVAILABLE,-999.0,OPEN,2022-01-07 15:27:25+00:00,2022-01-07 15:27:25+00:00,Newburgh,NY,ORANGE,41.4994,-74.0097,179.3,101.3913043478261
10000763,SHAWANGUNK CORRECTIONAL FACILITY,200 QUICK RD,WALLKILL,NY,12589,41.63647319688273,-74.16317188907884,STATE,MAXIMUM,575.0,OPEN,2022-01-07 15:27:25+00:00,2022-01-07 15:27:25+00:00,Newburgh,NY,ORANGE,41.4994,-74.0097,179.3,101.3913043478261
10003205,ORANGE COUNTY JAIL,110 WELLS FARM RD,GOSHEN,NY,10924,41.405146172466154,-74.35900469695603,COUNTY,NOT AVAILABLE,-999.0,OPEN,2022-01-07 15:27:25+00:00,2022-01-07 15:27:25+00:00,Newburgh,NY,ORANGE,41.4994,-74.0097,179.3,101.3913043478261
10001504,GREEN HAVEN CORRECTIONAL FACILITY,594 STATE ROUTE 216,STORMVILLE,NY,12582,41.58036952241283,-73.71652395793484,STATE,MAXIMUM,2232.0,OPEN,2022-01-07 15:27:25+00:00,2022-01-07 15:27:25+00:00,Newburgh,NY,ORANGE,41.4994,-74.0097,179.3,101.3913043478261
10003199,DOWNSTATE CORRECTIONAL FACILITY,121 RED SCHOOLHOUSE ROAD,FISHKILL,NY,12524,41.53235272227867,-73.9455343959898,STATE,MAXIMUM,-999.0,OPEN,2022-01-07 15:27:25+00:00,2022-01-07 15:27:25+00:00,Newburgh,NY,ORANGE,41.4994,-74.0097,179.3,101.3913043478261
10003195,EASTERN NY CORRECTIONAL FACILITY,30 INSTITUTION RD,NAPANOCH,NY,12458,41.741522557232955,-74.36182698408486,STATE,MAXIMUM,985.0,OPEN,2022-01-07 15:27:25+00:00,2022-01-07 15:27:25+00:00,Newburgh,NY,ORANGE,41.4994,-74.0097,179.3,101.3913043478261
10003198,FISHKILL CORRECTIONAL FACILITY,18 STRACK DRIVE,BEACON,NY,12508,41.523155893131495,-73.95039689137576,STATE,MEDIUM,1840.0,OPEN,2022-01-07 15:27:25+00:00,2022-01-07 15:27:25+00:00,Newburgh,NY,ORANGE,41.4994,-74.0097,179.3,101.3913043478261
10003204,OTISVILLE CORRECTIONAL FACILITY,57 SANITORIUM ROAD,OTISVILLE,NY,10963,41.48739791625134,-74.52517770849711,STATE,MEDIUM,603.0,OPEN,2022-01-07 15:27:25+00:00,2022-01-07 15:27:25+00:00,Newburgh,NY,ORANGE,41.4994,-74.0097,179.3,101.3913043478261
10003197,WALLKILL CORRECTIONAL FACILITY,50 MCKENDRICK RD,WALLKILL,NY,12589,41.628396878505896,-74.16257272086254,STATE,MEDIUM,608.0,OPEN,2022-01-07 15:27:25+00:00,2022-01-07 15:27:25+00:00,Newburgh,NY,ORANGE,41.4994,-74.0097,179.3,101.3913043478261
10006616,HIGHLAND RESIDENTIAL CENTER,629 NORTH CHODIKEE LAKE ROAD,HIGHLAND,NY,12528,41.76615409706984,-73.98232989991484,STATE,JUVENILE,50.0,OPEN,2022-01-07 15:27:25+00:00,2022-01-07 15:27:25+00:00,Newburgh,NY,ORANGE,41.4994,-74.0097,179.3,101.3913043478261
10003201,WOODBOURNE CORRECTIONAL FACILITY,99 PRISON RD,WOODBOURNE,NY,12788,41.75330527622395,-74.59222192746567,STATE,MEDIUM,853.0,OPEN,2022-01-07 15:27:25+00:00,2022-01-07 15:27:25+00:00,Newburgh,NY,ORANGE,41.4994,-74.0097,179.3,101.3913043478261
10002289,DUTCHESS COUNTY JAIL,150 N HAMILTON ST,POUGHKEEPSIE,NY,12601,41.710836711038084,-73.92142908882109,COUNTY,MAXIMUM,257.0,OPEN,2022-01-07 15:27:25+00:00,2022-01-07 15:27:25+00:00,Newburgh,NY,ORANGE,41.4994,-74.0097,179.3,101.3913043478261
10003203,FCI OTISVILLE CAMP,TWO MILE DR,OTISVILLE,NY,10963,41.49271513479392,-74.52929218176611,FEDERAL,MINIMUM,108.0,OPEN,2022-01-07 15:27:25+00:00,2022-01-07 15:27:25+00:00,Newburgh,NY,ORANGE,41.4994,-74.0097,179.3,101.3913043478261
10003194,ULSTER COUNTY LAW ENFORCEMENT CENTER,380 BOULEVARD,KINGSTON,NY,12401,41.91246061677556,-74.01592528491054,COUNTY,MAXIMUM,502.0,OPEN,2022-01-07 15:27:25+00:00,2022-01-07 15:27:25+00:00,Newburgh,NY,ORANGE,41.4994,-74.0097,179.3,101.3913043478261
10000765,GOSHEN SECURE CENTER,97 CROSS RD,GOSHEN,NY,10924,41.36559646710111,-74.38619499951604,STATE,JUVENILE,85.0,OPEN,2022-01-07 15:27:25+00:00,2022-01-07 15:27:25+00:00,Newburgh,NY,ORANGE,41.4994,-74.0097,179.3,101.3913043478261
10004005,ALBERT C WAGNER YOUTH CORRECTIONAL FACILITY,500 WARD AVE,CHESTERFIELD,NJ,08515,40.159583169874445,-74.669522781185,STATE,JUVENILE,1032.0,OPEN,2022-01-07 15:27:25+00:00,2022-01-07 15:27:25+00:00,Trenton,NJ,MERCER,40.222421,-74.763167,344.1,169.47272727272727
10004004,GARDEN STATE YOUTH CORRECTIONAL FACILITY,55 HOGBACK RD,CROSSWICKS,NJ,08515,40.15916830090083,-74.67634385752422,STATE,JUVENILE,1168.0,OPEN,2022-01-07 15:27:25+00:00,2022-01-07 15:27:25+00:00,Trenton,NJ,MERCER,40.222421,-74.763167,344.1,169.47272727272727
10001516,MID-STATE CORRECTIONAL FACILITY,866 RANGE RD,WRIGHTSTOWN,NJ,08562,39.9985635774665,-74.58339290430632,STATE,MEDIUM,696.0,OPEN,2022-01-07 15:27:25+00:00,2022-01-07 15:27:25+00:00,Trenton,NJ,MERCER,40.222421,-74.763167,344.1,169.47272727272727
10004003,NEW JERSEY STATE PRISON,600 CASS ST,TRENTON,NJ,08608,40.207273357049374,-74.75636872092731,STATE,MAXIMUM,1819.0,OPEN,2022-01-07 15:27:25+00:00,2022-01-07 15:27:25+00:00,Trenton,NJ,MERCER,40.222421,-74.763167,344.1,169.47272727272727
10004006,JOHNSTONE JUVENILE MEDIUM SECURITY FACILITY,"BURLINGTON ST, P.O. BOX 307",BORDENTOWN,NJ,08505,40.136752443439036,-74.72224779341217,STATE,JUVENILE,262.0,OPEN,2022-01-07 15:27:25+00:00,2022-01-07 15:27:25+00:00,Trenton,NJ,MERCER,40.222421,-74.763167,344.1,169.47272727272727
10004007,JOHNSTONE JUVENILE FEMALE SECURE CARE AND INTAKE FACILITY,"BURLINGTON ST, P.O. BOX 367",BORDENTOWN,NJ,08505,40.14290041574226,-74.72158243772893,STATE,JUVENILE,48.0,OPEN,2022-01-07 15:27:25+00:00,2022-01-07 15:27:25+00:00,Trenton,NJ,MERCER,40.222421,-74.763167,344.1,169.47272727272727
10006598,ANN KLEIN FORENSIC CENTER,STUYVESANT AVENUE,WEST TRENTON,NJ,08628,40.247050628731934,-74.80188507357187,STATE,NOT AVAILABLE,200.0,OPEN,2022-01-07 15:27:25+00:00,2022-01-07 15:27:25+00:00,Trenton,NJ,MERCER,40.222421,-74.763167,344.1,169.47272727272727
10006600,ALBERT ELIAS RESIDENTIAL COMMUNITY HOME,479 WEST BURLINGTON STREET,BORDENTOWN,NJ,08505,40.14262989915668,-74.72362369148465,STATE,JUVENILE,25.0,OPEN,2022-01-07 15:27:25+00:00,2022-01-07 15:27:25+00:00,Trenton,NJ,MERCER,40.222421,-74.763167,344.1,169.47272727272727
10004008,FCI FORT DIX CAMP,5756 HARTFORD & POINTVILE RD,FORT DIX,NJ,08640,40.00020682770673,-74.61804127103426,FEDERAL,MINIMUM,334.0,OPEN,2022-01-07 15:27:25+00:00,2022-01-07 15:27:25+00:00,Trenton,NJ,MERCER,40.222421,-74.763167,344.1,169.47272727272727
10002301,CENTRAL RECEPTION AND ASSIGNMENT FACILITY,2401 STUYVESANT AVENUE,TRENTON,NJ,08628,40.24759593410707,-74.80452606575415,STATE,MAXIMUM,691.0,OPEN,2022-01-07 15:27:25+00:00,2022-01-07 15:27:25+00:00,Trenton,NJ,MERCER,40.222421,-74.763167,344.1,169.47272727272727
10000770,FCI FORT DIX,5756 HARTFORD & POINTVILE RD,FORT DIX,NJ,08640,39.9996303758186,-74.61453839872105,FEDERAL,MINIMUM,4041.0,OPEN,2022-01-07 15:27:25+00:00,2022-01-07 15:27:25+00:00,Trenton,NJ,MERCER,40.222421,-74.763167,344.1,169.47272727272727
10004009,BURLINGTON COUNTY JUVENILE DETENTION CENTER,620 PEMBERTON-BROWNS MILLS RD,PEMBERTON,NJ,08068,39.968535787671804,-74.64043080582933,COUNTY,JUVENILE,-999.0,OPEN,2022-01-07 15:27:25+00:00,2022-01-07 15:27:25+00:00,Trenton,NJ,MERCER,40.222421,-74.763167,344.1,169.47272727272727
10002300,TRENTON PSYCHIATRIC HOSPITAL,100 SULLIVAN WAY,WEST TRENTON,NJ,08628,40.2438627420442,-74.80587737104116,STATE,NOT AVAILABLE,400.0,OPEN,2022-01-07 15:27:25+00:00,2022-01-07 15:27:25+00:00,Trenton,NJ,MERCER,40.222421,-74.763167,344.1,169.47272727272727
10003175,WYOMING CORRECTIONAL FACILITY,3203 DUNBAR RD,ATTICA,NY,14011,42.84949165545268,-78.26200414224893,STATE,MEDIUM,1714.0,OPEN,2022-01-07 15:27:25+00:00,2022-01-07 15:27:25+00:00,Buffalo Near-road,NY,ERIE,42.92111,-78.76611,120.0,53.07826086956521
10003160,BUFFALO FEDERAL DETENTION FACILITY,4250 FRDERAL DR,BATAVIA,NY,14020,43.02018440336628,-78.2026398930732,FEDERAL,NOT AVAILABLE,-999.0,OPEN,2022-01-07 15:27:25+00:00,2022-01-07 15:27:25+00:00,Buffalo Near-road,NY,ERIE,42.92111,-78.76611,120.0,53.07826086956521
10002287,ATTICA CORRECTIONAL FACILITY,639 EXCHANGE ST,ATTICA,NY,14011,42.8496364752998,-78.27130140919124,STATE,MAXIMUM,2141.0,OPEN,2022-01-07 15:27:25+00:00,2022-01-07 15:27:25+00:00,Buffalo Near-road,NY,ERIE,42.92111,-78.76611,120.0,53.07826086956521
10003165,WENDE CORRECTIONAL FACILITY,3040 WENDE RD,ALDEN,NY,14004,42.93100121373399,-78.54254232061162,STATE,MAXIMUM,919.0,OPEN,2022-01-07 15:27:25+00:00,2022-01-07 15:27:25+00:00,Buffalo Near-road,NY,ERIE,42.92111,-78.76611,120.0,53.07826086956521
10005797,WYOMING COUNTY JAIL / SHERIFF,151 NORTH MAIN STREET,WARSAW,NY,14569,42.74394267846846,-78.13332889389658,COUNTY,NOT AVAILABLE,81.0,OPEN,2022-01-07 15:27:25+00:00,2022-01-07 15:27:25+00:00,Buffalo Near-road,NY,ERIE,42.92111,-78.76611,120.0,53.07826086956521
10003161,GENESEE COUNTY JAIL,14 W MAIN ST,BATAVIA,NY,14021,42.9988491154464,-78.1879749691375,COUNTY,NOT AVAILABLE,87.0,OPEN,2022-01-07 15:27:25+00:00,2022-01-07 15:27:25+00:00,Buffalo Near-road,NY,ERIE,42.92111,-78.76611,120.0,53.07826086956521
10003144,ORLEANS CORRECTIONAL FACILITY,3531 GAINES BASIN RD,ALBION,NY,14411,43.24376060724351,-78.22018536565808,STATE,MEDIUM,1502.0,OPEN,2022-01-07 15:27:25+00:00,2022-01-07 15:27:25+00:00,Rochester Near-road,NY,MONROE,43.145021,-77.557608,178.8,87.9375
10003145,ALBION CORRECTIONAL FACILITY,3595 STATE SCHOOL RD,ALBION,NY,14411,43.24495010229968,-78.21490276118674,STATE,MEDIUM,1100.0,OPEN,2022-01-07 15:27:25+00:00,2022-01-07 15:27:25+00:00,Rochester Near-road,NY,MONROE,43.145021,-77.557608,178.8,87.9375
10003146,INDUSTRY RESIDENTIAL CENTER,375 RUSH SCOTTSVILLE RD,RUSH,NY,14543,42.99964297667979,-77.71664316343987,STATE,JUVENILE,50.0,OPEN,2022-01-07 15:27:25+00:00,2022-01-07 15:27:25+00:00,Rochester Near-road,NY,MONROE,43.145021,-77.557608,178.8,87.9375
10005791,HILLSIDE - NORTHAVEN TERRACE,160 NORTHAVEN TERRACE,ROCHESTER,NY,14621,43.19056205698625,-77.58774099240112,COUNTY,JUVENILE,19.0,OPEN,2022-01-07 15:27:25+00:00,2022-01-07 15:27:25+00:00,Rochester Near-road,NY,MONROE,43.145021,-77.557608,178.8,87.9375
10000757,GROVELAND ANNEX,7000 SONYEA RD,SONYEA,NY,14556,42.6760404727225,-77.82607262143809,STATE,MINIMUM,176.0,OPEN,2022-01-07 15:27:25+00:00,2022-01-07 15:27:25+00:00,Rochester Near-road,NY,MONROE,43.145021,-77.557608,178.8,87.9375
10003171,LIVINGSTON COUNTY JAIL,4 COURT ST,GENESEO,NY,14454,42.80148964815729,-77.81616010872315,COUNTY,NOT AVAILABLE,194.0,OPEN,2022-01-07 15:27:25+00:00,2022-01-07 15:27:25+00:00,Rochester Near-road,NY,MONROE,43.145021,-77.557608,178.8,87.9375
10002286,MONROE COUNTY JAIL,130 PLYMOUTH AVE S,ROCHESTER,NY,14614,43.152554075273834,-77.61345655507299,COUNTY,MAXIMUM,1000.0,OPEN,2022-01-07 15:27:25+00:00,2022-01-07 15:27:25+00:00,Rochester Near-road,NY,MONROE,43.145021,-77.557608,178.8,87.9375
10002285,MONROE COUNTY CORRECTIONAL FACILITY,750 E HENRIETTA RD,ROCHESTER,NY,14623,43.10684750953096,-77.61187790691373,COUNTY,NOT AVAILABLE,475.0,OPEN,2022-01-07 15:27:25+00:00,2022-01-07 15:27:25+00:00,Rochester Near-road,NY,MONROE,43.145021,-77.557608,178.8,87.9375
10003168,ONTARIO COUNTY JAIL,3045 COUNTY COMPLEX DR,CANANDAIGUA,NY,14424,42.88063500217185,-77.212463057395,COUNTY,NOT AVAILABLE,276.0,OPEN,2022-01-07 15:27:25+00:00,2022-01-07 15:27:25+00:00,Rochester Near-road,NY,MONROE,43.145021,-77.557608,178.8,87.9375
10001498,ORLEANS COUNTY JAIL,26 PLATT ST,ALBION,NY,14411,43.245611516064464,-78.19251914946803,COUNTY,MAXIMUM,82.0,OPEN,2022-01-07 15:27:25+00:00,2022-01-07 15:27:25+00:00,Rochester Near-road,NY,MONROE,43.145021,-77.557608,178.8,87.9375
10000749,WAYNE COUNTY JAIL,7376 ROUTE 31,LYONS,NY,14489,43.066660734756525,-77.03243285458925,COUNTY,MAXIMUM,-999.0,OPEN,2022-01-07 15:27:25+00:00,2022-01-07 15:27:25+00:00,Rochester Near-road,NY,MONROE,43.145021,-77.557608,178.8,87.9375
10003148,ROCHESTER CORRECTIONAL FACILITY,470 FORD ST,ROCHESTER,NY,14608,43.14379574181195,-77.61671589054322,STATE,MINIMUM,70.0,OPEN,2022-01-07 15:27:25+00:00,2022-01-07 15:27:25+00:00,Rochester Near-road,NY,MONROE,43.145021,-77.557608,178.8,87.9375
10000756,GROVELAND CORRECTIONAL FACILITY,7000 SONYEA RD,SONYEA,NY,14556,42.682500979931575,-77.83673450381175,STATE,MEDIUM,1106.0,OPEN,2022-01-07 15:27:25+00:00,2022-01-07 15:27:25+00:00,Rochester Near-road,NY,MONROE,43.145021,-77.557608,178.8,87.9375
10006836,MONROE COUNTY CHILDREN'S CENTER - RUSH,400 RUSH SCOTTSVILLE RD,RUSH,NY,14543,43.005409017908704,-77.7134659826156,COUNTY,JUVENILE,20.0,OPEN,2022-01-07 15:27:25+00:00,2022-01-07 15:27:25+00:00,Rochester Near-road,NY,MONROE,43.145021,-77.557608,178.8,87.9375
10003147,INDUSTRY SECURE CENTER,101 RYDER HILL RD,RUSH,NY,14543,42.99253361661966,-77.71441328059912,STATE,JUVENILE,-999.0,OPEN,2022-01-07 15:27:25+00:00,2022-01-07 15:27:25+00:00,Rochester Near-road,NY,MONROE,43.145021,-77.557608,178.8,87.9375
10005795,HILLSIDE - ONTARIO COUNTY - HOPEWELL,3093 COUNTY COMPLEX DRIVE,CANANDAIGUA,NY,14424,42.8845236955534,-77.21495183024464,COUNTY,JUVENILE,10.0,OPEN,2022-01-07 15:27:25+00:00,2022-01-07 15:27:25+00:00,Rochester Near-road,NY,MONROE,43.145021,-77.557608,178.8,87.9375
10003227,QUEENSBORO CORRECTIONAL FACILITY,47-04 VAN DAM ST,LONG ISLAND CITY,NY,11101,40.742610798118896,-73.93448221160055,STATE,MINIMUM,424.0,OPEN,2022-01-07 15:27:25+00:00,2022-01-07 15:27:25+00:00,Maspeth,NY,QUEENS,40.7269,-73.8933,161.3,79.26428571428572
10007015,ELMHURST HOSPITAL PRISON WARD,79-01 BROADWAY,QUEENS,NY,11373,40.74506382907497,-73.885530068615,STATE,NOT AVAILABLE,-999.0,OPEN,2022-01-07 15:27:25+00:00,2022-01-07 15:27:25+00:00,Maspeth,NY,QUEENS,40.7269,-73.8933,161.3,79.26428571428572
10003124,OGDENSBURG CORRECTIONAL FACILITY,ONE CORRECTION WAY,OGDENSBURG,NY,13669,44.72502826020034,-75.44594023982842,STATE,MEDIUM,-999.0,OPEN,2022-01-07 15:27:25+00:00,2022-01-07 15:27:25+00:00,Cornwall,CC,ONTARIO,45.0294,-74.7394,205.0,82.91666666666667
10003125,RIVERVIEW CORRECTIONAL FACILITY,1110 TIBBITS DR,OGDENSBURG,NY,13669,44.71648794390083,-75.43431529310661,STATE,MEDIUM,882.0,OPEN,2022-01-07 15:27:25+00:00,2022-01-07 15:27:25+00:00,Cornwall,CC,ONTARIO,45.0294,-74.7394,205.0,82.91666666666667
10003123,ST. LAWRENCE COUNTY CORRECTIONAL FACILITY,17 COMMERCE LANE,CANTON,NY,13617,44.588029519663955,-75.18168758753349,COUNTY,NOT AVAILABLE,186.0,OPEN,2022-01-07 15:27:25+00:00,2022-01-07 15:27:25+00:00,Cornwall,CC,ONTARIO,45.0294,-74.7394,205.0,82.91666666666667
10004002,CRAF JONES FARM,721 BEAR TAVERN RD,TRENTON,NJ,08628,40.27464489217101,-74.82931384578082,STATE,MINIMUM,-999.0,OPEN,2022-01-07 15:27:25+00:00,2022-01-07 15:27:25+00:00,Rider University,NJ,MERCER,40.283092,-74.742645,311.6,167.95000000000002
10004000,MERCER COUNTY CORRECTIONAL CENTER,1750 ROUTE 29,LAMBERTVILLE,NJ,08530,40.32917521398056,-74.91925666596686,COUNTY,MAXIMUM,880.0,OPEN,2022-01-07 15:27:25+00:00,2022-01-07 15:27:25+00:00,Rider University,NJ,MERCER,40.283092,-74.742645,311.6,167.95000000000002
10003993,EDNA MAHAN CORRECTIONAL FACILITY FOR WOMEN,"30 COUNTY RD 513, P.O. BOX 4004",CLINTON,NJ,08809,40.62888671346775,-74.93457377246527,STATE,MAXIMUM,648.0,OPEN,2022-01-07 15:27:25+00:00,2022-01-07 15:27:25+00:00,Flemington,NJ,HUNTERDON,40.515251,-74.806755,344.3,219.08125
10001512,MOUNTAINVIEW YOUTH CORRECTIONAL FACILITY,31 PETTICOAT LN,ANNANDALE,NJ,08801,40.649491582870965,-74.86623638577396,STATE,JUVENILE,710.0,OPEN,2022-01-07 15:27:25+00:00,2022-01-07 15:27:25+00:00,Flemington,NJ,HUNTERDON,40.515251,-74.806755,344.3,219.08125
10003994,SOMERSET COUNTY JAIL,40 GROVE ST,SOMERVILLE,NJ,08876,40.56874334391081,-74.6091295117278,COUNTY,MAXIMUM,440.0,OPEN,2022-01-07 15:27:25+00:00,2022-01-07 15:27:25+00:00,Flemington,NJ,HUNTERDON,40.515251,-74.806755,344.3,219.08125
10006608,VOORHEES RESIDENTIAL COMMUNITY HOME,201 ROUTE 513,GLEN GARDNER,NJ,08826,40.681552844536625,-74.89146559703761,STATE,JUVENILE,27.0,OPEN,2022-01-07 15:27:25+00:00,2022-01-07 15:27:25+00:00,Flemington,NJ,HUNTERDON,40.515251,-74.806755,344.3,219.08125
10006602,D.O.V.E.S. RESIDENTIAL COMMUNITY HOME,188 LINDBERGH ROAD,HOPEWELL,NJ,08525,40.424079942717675,-74.76793074337098,STATE,JUVENILE,16.0,OPEN,2022-01-07 15:27:25+00:00,2022-01-07 15:27:25+00:00,Flemington,NJ,HUNTERDON,40.515251,-74.806755,344.3,219.08125
10003990,NORTHERN STATE PRISON,168 FRONTAGE RD,NEWARK,NJ,07114,40.71279181441772,-74.17351793218819,STATE,MEDIUM,1530.0,OPEN,2022-01-07 15:27:25+00:00,2022-01-07 15:27:25+00:00,Elizabeth Trailer,NJ,UNION,40.641441,-74.208366,283.1,152.1772727272727
10001513,UNION COUNTY JAIL,15 ELIZABETHTOWN PLAZA,ELIZABETH,NJ,07207,40.662629665721155,-74.21709501635738,COUNTY,MAXIMUM,1048.0,OPEN,2022-01-07 15:27:25+00:00,2022-01-07 15:27:25+00:00,Elizabeth Trailer,NJ,UNION,40.641441,-74.208366,283.1,152.1772727272727
10003995,ELIZABETH DETENTION CENTER,625 EVANS ST,ELIZABETH,NJ,07201,40.666156706129584,-74.18969117554099,FEDERAL,MINIMUM,300.0,OPEN,2022-01-07 15:27:25+00:00,2022-01-07 15:27:25+00:00,Elizabeth Trailer,NJ,UNION,40.641441,-74.208366,283.1,152.1772727272727
10001515,NEW JERSEY TRAINING SCHOOL,"GRACE HILL ROAD, P.O. BOX 500",MONROE TOWNSHIP,NJ,08831,40.34246131616155,-74.39847855782696,STATE,JUVENILE,200.0,OPEN,2022-01-07 15:27:25+00:00,2022-01-07 15:27:25+00:00,Rutgers University,NJ,MIDDLESEX,40.462181,-74.429436,334.6,187.75333333333336
10003998,MIDDLESEX COUNTY ADULT CORRECTION CENTER,ROUTE 130 AND APPLE ORCHARD LANE,NORTH BRUNSWICK,NJ,08902,40.42061842593093,-74.48919929419147,COUNTY,NOT AVAILABLE,1436.0,OPEN,2022-01-07 15:27:25+00:00,2022-01-07 15:27:25+00:00,Rutgers University,NJ,MIDDLESEX,40.462181,-74.429436,334.6,187.75333333333336
10003997,MIDDLESEX COUNTY JUVENILE DETENTION CENTER,APPLE ORCHARD LANE,NORTH BRUNSWICK,NJ,08902,40.42859075495154,-74.48926057339622,COUNTY,JUVENILE,100.0,OPEN,2022-01-07 15:27:25+00:00,2022-01-07 15:27:25+00:00,Rutgers University,NJ,MIDDLESEX,40.462181,-74.429436,334.6,187.75333333333336
10002299,MONMOUTH COUNTY CORRECTIONAL INSTITUTION,1 WATERWORKS RD,FREEHOLD,NJ,07728,40.26777675717787,-74.28686151099151,COUNTY,MAXIMUM,1328.0,OPEN,2022-01-07 15:27:25+00:00,2022-01-07 15:27:25+00:00,Rutgers University,NJ,MIDDLESEX,40.462181,-74.429436,334.6,187.75333333333336
10002281,CAYUGA CORRECTIONAL FACILITY,2202 STATE ROUTE 38A,MORAVIA,NY,13118,42.72199926293475,-76.39619204908973,STATE,MEDIUM,1282.0,OPEN,2022-01-07 15:27:25+00:00,2022-01-07 15:27:25+00:00,E Syracuse,NY,ONONDAGA,43.0528,-76.0597,403.1,181.07083333333335
10003169,SENECA COUNTY CORRECTIONAL FACILITY,6150 STATE ROUTE 96,ROMULUS,NY,14541,42.72315339363824,-76.83130910006359,COUNTY,NOT AVAILABLE,120.0,OPEN,2022-01-07 15:27:25+00:00,2022-01-07 15:27:25+00:00,E Syracuse,NY,ONONDAGA,43.0528,-76.0597,403.1,181.07083333333335
10005244,TOMPKINS COUNTY CORRECTIONAL FACILITY,779 WARREN ROAD,ITHACA,NY,14850,42.492569874024696,-76.46665195092501,COUNTY,NOT AVAILABLE,-999.0,OPEN,2022-01-07 15:27:25+00:00,2022-01-07 15:27:25+00:00,E Syracuse,NY,ONONDAGA,43.0528,-76.0597,403.1,181.07083333333335
10000754,FIVE POINTS CORRECTIONAL FACILITY,6600 STATE ROUTE 96,ROMULUS,NY,14541,42.71197824824665,-76.84040036577568,STATE,MAXIMUM,1587.0,OPEN,2022-01-07 15:27:25+00:00,2022-01-07 15:27:25+00:00,E Syracuse,NY,ONONDAGA,43.0528,-76.0597,403.1,181.07083333333335
10002282,CAYUGA COUNTY JAIL,7445 COUNTY HOUSE RD,AUBURN,NY,13021,42.97979071598431,-76.5435352006771,COUNTY,MAXIMUM,214.0,OPEN,2022-01-07 15:27:25+00:00,2022-01-07 15:27:25+00:00,E Syracuse,NY,ONONDAGA,43.0528,-76.0597,403.1,181.07083333333335
10000745,AUBURN CORRECTIONAL FACILITY,135 STATE ST,AUBURN,NY,13024,42.93458850539897,-76.57422543352769,STATE,MAXIMUM,1766.0,OPEN,2022-01-07 15:27:25+00:00,2022-01-07 15:27:25+00:00,E Syracuse,NY,ONONDAGA,43.0528,-76.0597,403.1,181.07083333333335
10005793,SKEELE VALLEY NON-SECURE DETENTION,6912 JONES ROAD,TULLY,NY,13159,42.81273826594133,-76.04491296575009,COUNTY,JUVENILE,12.0,OPEN,2022-01-07 15:27:25+00:00,2022-01-07 15:27:25+00:00,E Syracuse,NY,ONONDAGA,43.0528,-76.0597,403.1,181.07083333333335
10005242,HILLSIDE BIRCHVIEW JUVENILE DETENTION FACILITY,7432 COUNTY HOUSE ROAD,AUBURN,NY,13021,42.97458051581455,-76.5385655795265,STATE,JUVENILE,40.0,OPEN,2022-01-07 15:27:25+00:00,2022-01-07 15:27:25+00:00,E Syracuse,NY,ONONDAGA,43.0528,-76.0597,403.1,181.07083333333335
10001500,MADISON COUNTY JAIL / SHERIFF,138 N COURT ST,WAMPSVILLE,NY,13163,43.08095438656935,-75.70304901488818,COUNTY,NOT AVAILABLE,127.0,OPEN,2022-01-07 15:27:25+00:00,2022-01-07 15:27:25+00:00,E Syracuse,NY,ONONDAGA,43.0528,-76.0597,403.1,181.07083333333335
10003158,ONONDAGA COUNTY JUSTICE CENTER,555 S STATE ST,SYRACUSE,NY,13202,43.04616961507525,-76.14650282124816,COUNTY,MAXIMUM,-999.0,OPEN,2022-01-07 15:27:25+00:00,2022-01-07 15:27:25+00:00,E Syracuse,NY,ONONDAGA,43.0528,-76.0597,403.1,181.07083333333335
10003159,HILLBROOK JUVENILE DETENTION CENTER,4949 VELASKO RD,SYRACUSE,NY,13215,43.010750336119834,-76.18724338785395,COUNTY,JUVENILE,32.0,OPEN,2022-01-07 15:27:25+00:00,2022-01-07 15:27:25+00:00,E Syracuse,NY,ONONDAGA,43.0528,-76.0597,403.1,181.07083333333335
10003143,OSWEGO COUNTY JAIL,39 CHURCHHILL RD,OSWEGO,NY,13126,43.43202228745527,-76.47992073098128,COUNTY,NOT AVAILABLE,-999.0,OPEN,2022-01-07 15:27:25+00:00,2022-01-07 15:27:25+00:00,E Syracuse,NY,ONONDAGA,43.0528,-76.0597,403.1,181.07083333333335
10000746,HARRIET TUBMAN RESIDENTIAL CENTER,6706 PINE RIDGE RD,AUBURN,NY,13021,42.94572063899168,-76.50370434756842,STATE,JUVENILE,25.0,OPEN,2022-01-07 15:27:25+00:00,2022-01-07 15:27:25+00:00,E Syracuse,NY,ONONDAGA,43.0528,-76.0597,403.1,181.07083333333335
10006615,FINGER LAKES RESIDENTIAL CENTER,250 AUBURN ROAD,LANSING,NY,14882,42.547422113570875,-76.49728926993988,STATE,JUVENILE,150.0,OPEN,2022-01-07 15:27:25+00:00,2022-01-07 15:27:25+00:00,E Syracuse,NY,ONONDAGA,43.0528,-76.0597,403.1,181.07083333333335
10003180,CORTLAND COUNTY CORRECTIONAL FACILITY,54 GREENBUSH ST,CORTLAND,NY,13045,42.59854778489451,-76.17579380485451,COUNTY,NOT AVAILABLE,90.0,OPEN,2022-01-07 15:27:25+00:00,2022-01-07 15:27:25+00:00,E Syracuse,NY,ONONDAGA,43.0528,-76.0597,403.1,181.07083333333335
10001499,ONONDAGA COUNTY DEPARTMENT OF CORRECTION,6660 E SENECA TURNPIKE,JAMESVILLE,NY,13078,42.98785045594512,-76.06176064694804,COUNTY,MAXIMUM,516.0,OPEN,2022-01-07 15:27:25+00:00,2022-01-07 15:27:25+00:00,E Syracuse,NY,ONONDAGA,43.0528,-76.0597,403.1,181.07083333333335
10003210,WOODFIELD SECURE COTTAGE,20 HAMMOND HOUSE RD,VALHALLA,NY,10595,41.08307946540856,-73.8126424806615,STATE,JUVENILE,24.0,OPEN,2022-01-07 15:27:25+00:00,2022-01-07 15:27:25+00:00,White Plains,NY,WESTCHESTER,41.0522,-73.7642,236.8,119.53913043478263
10002290,BEDFORD HILLS CORRECTIONAL FACILITY,247 HARRIS RD,BEDFORD HILLS,NY,10507,41.23840339241847,-73.68078523541763,STATE,MAXIMUM,972.0,OPEN,2022-01-07 15:27:25+00:00,2022-01-07 15:27:25+00:00,White Plains,NY,WESTCHESTER,41.0522,-73.7642,236.8,119.53913043478263
10005804,CLEARVIEW NSD / SCHOLES NSD,1 ECHO HILL,DOBBS FERRY,NY,10522,41.00427439932117,-73.86342263114547,COUNTY,JUVENILE,12.0,OPEN,2022-01-07 15:27:25+00:00,2022-01-07 15:27:25+00:00,White Plains,NY,WESTCHESTER,41.0522,-73.7642,236.8,119.53913043478263
10003208,TACONIC CORRECTIONAL FACILITY,250 HARRIS RD,BEDFORD HILLS,NY,10507,41.24514649109253,-73.67789467789967,STATE,MEDIUM,359.0,OPEN,2022-01-07 15:27:25+00:00,2022-01-07 15:27:25+00:00,White Plains,NY,WESTCHESTER,41.0522,-73.7642,236.8,119.53913043478263
10000766,WESTCHESTER COUNTY DEPARTMENT OF CORRECTION,10 WOOD RD,VALHALLA,NY,10595,41.07838975623135,-73.80500213081832,COUNTY,MAXIMUM,1821.0,OPEN,2022-01-07 15:27:25+00:00,2022-01-07 15:27:25+00:00,White Plains,NY,WESTCHESTER,41.0522,-73.7642,236.8,119.53913043478263
10003181,YATES COUNTY JAIL,227 MAIN ST,PENN YAN,NY,14527,42.665749641051384,-77.05526963201882,COUNTY,NOT AVAILABLE,65.0,OPEN,2022-01-07 15:27:25+00:00,2022-01-07 15:27:25+00:00,Pinnacle State Park,NY,STEUBEN,42.0972,-77.2103,488.3,182.90416666666667
10003183,STEUBEN COUNTY JAIL,7007 RUMSEY ST EXTENSION,BATH,NY,14810,42.34988843485257,-77.29600583019177,COUNTY,NOT AVAILABLE,262.0,OPEN,2022-01-07 15:27:25+00:00,2022-01-07 15:27:25+00:00,Pinnacle State Park,NY,STEUBEN,42.0972,-77.2103,488.3,182.90416666666667
10000710,POTTER COUNTY JAIL,102 E 2ND ST,COUDERSPORT,PA,16915,41.77415242355065,-78.01945588485803,COUNTY,NOT AVAILABLE,73.0,OPEN,2022-01-07 15:27:25+00:00,2022-01-07 15:27:25+00:00,Pinnacle State Park,NY,STEUBEN,42.0972,-77.2103,488.3,182.90416666666667
10000711,MCKEAN COUNTY PRISON,17013 RT. 6,SMETHPORT,PA,16749,41.7965080546321,-78.46411120781327,COUNTY,NOT AVAILABLE,111.0,OPEN,2022-01-07 15:27:25+00:00,2022-01-07 15:27:25+00:00,Pinnacle State Park,NY,STEUBEN,42.0972,-77.2103,488.3,182.90416666666667
10002263,BRADFORD COUNTY CORRECTIONAL FACILITY,15927 ROUTE 6,TROY,PA,16947,41.77779665445434,-76.62271714431404,COUNTY,NOT AVAILABLE,207.0,OPEN,2022-01-07 15:27:25+00:00,2022-01-07 15:27:25+00:00,Pinnacle State Park,NY,STEUBEN,42.0972,-77.2103,488.3,182.90416666666667
10000717,LYCOMING COUNTY PRE-RELEASE CENTER,546 COUNTY FARM RD,MONTOURSVILLE,PA,17754,41.27661707351925,-76.92421065175559,COUNTY,MINIMUM,137.0,OPEN,2022-01-07 15:27:25+00:00,2022-01-07 15:27:25+00:00,Pinnacle State Park,NY,STEUBEN,42.0972,-77.2103,488.3,182.90416666666667
10003192,ELMIRA CORRECTIONAL FACILITY,1879 DAVIS ST,ELMIRA,NY,14901,42.11483771875676,-76.83129164323047,STATE,MAXIMUM,1856.0,OPEN,2022-01-07 15:27:25+00:00,2022-01-07 15:27:25+00:00,Pinnacle State Park,NY,STEUBEN,42.0972,-77.2103,488.3,182.90416666666667
10003193,SOUTHPORT CORRECTIONAL FACILITY,236 BOB MASIA DR,PINE CITY,NY,14871,42.05072657995602,-76.79602210693692,STATE,MAXIMUM,945.0,OPEN,2022-01-07 15:27:25+00:00,2022-01-07 15:27:25+00:00,Pinnacle State Park,NY,STEUBEN,42.0972,-77.2103,488.3,182.90416666666667
10003170,WILLARD DRUG TREATMENT CAMPUS,7116 COUNTY ROUTE 132,WILLARD,NY,14588,42.679946391620845,-76.86544014174736,STATE,NOT AVAILABLE,800.0,OPEN,2022-01-07 15:27:25+00:00,2022-01-07 15:27:25+00:00,Pinnacle State Park,NY,STEUBEN,42.0972,-77.2103,488.3,182.90416666666667
10006622,MACCORMICK SECURE CENTER,300 SOUTH ROAD,BROOKTONDALE,NY,14817,42.32664445469906,-76.31899175686458,STATE,JUVENILE,39.0,OPEN,2022-01-07 15:27:25+00:00,2022-01-07 15:27:25+00:00,Pinnacle State Park,NY,STEUBEN,42.0972,-77.2103,488.3,182.90416666666667
10005798,SCHUYLER COUNTY SHERIFF'S DEPARTMENT,106 10TH STREET,WATKINS GLEN,NY,14891,42.37685914106076,-76.87084473015673,COUNTY,NOT AVAILABLE,30.0,OPEN,2022-01-07 15:27:25+00:00,2022-01-07 15:27:25+00:00,Pinnacle State Park,NY,STEUBEN,42.0972,-77.2103,488.3,182.90416666666667
10003191,TIOGA COUNTY JAIL,103 CORPORATE DR,OWEGO,NY,13827,42.141674071146845,-76.26633741562361,COUNTY,MAXIMUM,104.0,OPEN,2022-01-07 15:27:25+00:00,2022-01-07 15:27:25+00:00,Pinnacle State Park,NY,STEUBEN,42.0972,-77.2103,488.3,182.90416666666667
10005245,ALLEGANY COUNTY JAIL,4884 STATE ROUTE 19S,BELMONT,NY,14813,42.213077912665895,-78.01630061955134,COUNTY,NOT AVAILABLE,-999.0,OPEN,2022-01-07 15:27:25+00:00,2022-01-07 15:27:25+00:00,Pinnacle State Park,NY,STEUBEN,42.0972,-77.2103,488.3,182.90416666666667
10001503,CHEMUNG COUNTY CORRECTIONAL FACILITY,211 WILLIAM ST,ELMIRA,NY,14901,42.09120828455105,-76.80140558667158,COUNTY,MAXIMUM,262.0,OPEN,2022-01-07 15:27:25+00:00,2022-01-07 15:27:25+00:00,Pinnacle State Park,NY,STEUBEN,42.0972,-77.2103,488.3,182.90416666666667
10003045,TIOGA COUNTY PRISON,1768 SHUMWAY HILL RD,WELLSBORO,PA,16901,41.73879700703054,-77.26847053124237,COUNTY,NOT AVAILABLE,141.0,OPEN,2022-01-07 15:27:25+00:00,2022-01-07 15:27:25+00:00,Pinnacle State Park,NY,STEUBEN,42.0972,-77.2103,488.3,182.90416666666667
10003162,ERIE COUNTY JUVENILE DETENTION CENTER,810 E FERRY ST,BUFFALO,NY,14211,42.91563325218769,-78.83536543071885,COUNTY,JUVENILE,64.0,OPEN,2022-01-07 15:27:25+00:00,2022-01-07 15:27:25+00:00,Buffalo,NY,ERIE,42.8781,-78.8094,191.5,91.62083333333334
10003185,CATTARAUGUS COUNTY JAIL,301 COURT ST,LITTLE VALLEY,NY,14755,42.25225707507969,-78.80068906397149,COUNTY,MAXIMUM,150.0,OPEN,2022-01-07 15:27:25+00:00,2022-01-07 15:27:25+00:00,Buffalo,NY,ERIE,42.8781,-78.8094,191.5,91.62083333333334
10003166,COLLINS CORRECTIONAL FACILITY,"P.O. BOX 490, MIDDLE RD",COLLINS,NY,14034,42.49183184130828,-78.9389520302076,STATE,MEDIUM,1107.0,OPEN,2022-01-07 15:27:25+00:00,2022-01-07 15:27:25+00:00,Buffalo,NY,ERIE,42.8781,-78.8094,191.5,91.62083333333334
10003167,GOWANDA CORRECTIONAL FACILITY,"P O BOX 350, SOUTH RD",GOWANDA,NY,14070,42.48821356883171,-78.93697159726123,STATE,MEDIUM,1755.0,OPEN,2022-01-07 15:27:25+00:00,2022-01-07 15:27:25+00:00,Buffalo,NY,ERIE,42.8781,-78.8094,191.5,91.62083333333334
10001501,ERIE COUNTY HOLDING CENTER,40 DELAWARE AVE,BUFFALO,NY,14202,42.884385087411744,-78.87932197533884,COUNTY,MAXIMUM,638.0,OPEN,2022-01-07 15:27:25+00:00,2022-01-07 15:27:25+00:00,Buffalo,NY,ERIE,42.8781,-78.8094,191.5,91.62083333333334
10003155,FULTON COUNTY CORRECTIONAL CENTER,2710 STATE HWY 29,JOHNSTOWN,NY,12095,43.0187411356759,-74.34970552445573,COUNTY,NOT AVAILABLE,-999.0,OPEN,2022-01-07 15:27:25+00:00,2022-01-07 15:27:25+00:00,Albany,NY,ALBANY,42.6425,-73.7547,229.4,102.27916666666665
10003188,COXSACKIE CORRECTIONAL FACILITY,11260 ROUTE 9 WEST,COXSACKIE,NY,12051,42.34343204519838,-73.83578762197736,STATE,MAXIMUM,1006.0,OPEN,2022-01-07 15:27:25+00:00,2022-01-07 15:27:25+00:00,Albany,NY,ALBANY,42.6425,-73.7547,229.4,102.27916666666665
10003189,GREENE CORRECTIONAL FACILITY,165 PLANK RD,COXSACKIE,NY,12051,42.34654179227737,-73.82226290446214,STATE,MEDIUM,1755.0,OPEN,2022-01-07 15:27:25+00:00,2022-01-07 15:27:25+00:00,Albany,NY,ALBANY,42.6425,-73.7547,229.4,102.27916666666665
10003187,COLUMBIA COUNTY JAIL,85 INDUSTRIAL TRACT,HUDSON,NY,12534,42.24894764426352,-73.7556924520942,COUNTY,MAXIMUM,135.0,OPEN,2022-01-07 15:27:25+00:00,2022-01-07 15:27:25+00:00,Albany,NY,ALBANY,42.6425,-73.7547,229.4,102.27916666666665
10003156,HALE CREEK ASACTC,279 MALONEY RD,JOHNSTOWN,NY,12095,43.013674519230264,-74.2983604332519,STATE,MEDIUM,480.0,OPEN,2022-01-07 15:27:25+00:00,2022-01-07 15:27:25+00:00,Albany,NY,ALBANY,42.6425,-73.7547,229.4,102.27916666666665
10001502,GREENE COUNTY JAIL,80 BRIDGE ST,CATSKILL,NY,12414,42.217502595028755,-73.86393879935576,COUNTY,NOT AVAILABLE,56.0,OPEN,2022-01-07 15:27:25+00:00,2022-01-07 15:27:25+00:00,Albany,NY,ALBANY,42.6425,-73.7547,229.4,102.27916666666665
10006621,COLUMBIA GIRLS SECURE CENTER,419 SPOOK ROCK RD,CLAVERACK,NY,12513,42.21345406369294,-73.75637089980728,STATE,JUVENILE,16.0,OPEN,2022-01-07 15:27:25+00:00,2022-01-07 15:27:25+00:00,Albany,NY,ALBANY,42.6425,-73.7547,229.4,102.27916666666665
10000762,BROOKWOOD SECURE CENTER,419 SPOOK ROCK RD,CLAVERACK,NY,12513,42.211206847205474,-73.7555502048686,STATE,JUVENILE,155.0,OPEN,2022-01-07 15:27:25+00:00,2022-01-07 15:27:25+00:00,Albany,NY,ALBANY,42.6425,-73.7547,229.4,102.27916666666665
10005243,MONTGOMERY COUNTY JAIL,200 CLARK DRIVE,FULTONVILLE,NY,12072,42.93366607663404,-74.33190798513522,COUNTY,NOT AVAILABLE,-999.0,OPEN,2022-01-07 15:27:25+00:00,2022-01-07 15:27:25+00:00,Albany,NY,ALBANY,42.6425,-73.7547,229.4,102.27916666666665
10003178,ALBANY COUNTY CORRECTIONAL FACILITY,840 ALBANY SHAKER RD,ALBANY,NY,12211,42.75164268846272,-73.81657819324907,COUNTY,NOT AVAILABLE,1043.0,OPEN,2022-01-07 15:27:25+00:00,2022-01-07 15:27:25+00:00,Albany,NY,ALBANY,42.6425,-73.7547,229.4,102.27916666666665
10003172,RENSSELAER COUNTY JAIL,4000 MAIN ST,TROY,NY,12180,42.71006129768555,-73.70068419247228,COUNTY,NOT AVAILABLE,473.0,OPEN,2022-01-07 15:27:25+00:00,2022-01-07 15:27:25+00:00,Albany,NY,ALBANY,42.6425,-73.7547,229.4,102.27916666666665
10003154,SARATOGA COUNTY CORRECTIONAL FACILITY,6010 COUNTY FARM RD,BALLSTON SPA,NY,12020,43.020149632769176,-73.87435966867581,COUNTY,NOT AVAILABLE,255.0,OPEN,2022-01-07 15:27:25+00:00,2022-01-07 15:27:25+00:00,Albany,NY,ALBANY,42.6425,-73.7547,229.4,102.27916666666665
10003173,SCHENECTADY COUNTY CORRECTIONAL FACILITY,320 VEEDER AVE,SCHENECTADY,NY,12307,42.809934683217016,-73.9402754271483,COUNTY,NOT AVAILABLE,378.0,OPEN,2022-01-07 15:27:25+00:00,2022-01-07 15:27:25+00:00,Albany,NY,ALBANY,42.6425,-73.7547,229.4,102.27916666666665
10000761,HUDSON CORRECTIONAL FACILITY / WORK RELEASE,50 E COURT ST,HUDSON,NY,12534,42.24458968745579,-73.79309845584203,STATE,MEDIUM,315.0,OPEN,2022-01-07 15:27:25+00:00,2022-01-07 15:27:25+00:00,Albany,NY,ALBANY,42.6425,-73.7547,229.4,102.27916666666665
10006617,SGT. HENRY JOHNSON YOUTH LEADERSHIP ACADEMY,57081 STATE HIGHWAY 10,SOUTH KORTRIGHT,NY,13842,42.34700082678501,-74.71842264872923,STATE,JUVENILE,26.0,OPEN,2022-01-07 15:27:25+00:00,2022-01-07 15:27:25+00:00,Albany,NY,ALBANY,42.6425,-73.7547,229.4,102.27916666666665
10003179,CAPITAL DISTRICT SECURE JUVENILE DETENTION CENTER,838 ALBANY SHAKER RD,ALBANY,NY,12211,42.753221231159316,-73.81869371286045,COUNTY,JUVENILE,24.0,OPEN,2022-01-07 15:27:25+00:00,2022-01-07 15:27:25+00:00,Albany,NY,ALBANY,42.6425,-73.7547,229.4,102.27916666666665
10004014,ATLANTIC COUNTY GERARD L GORMLEY JUSTICE FACILITY,5060 ATLANTIC AVE,MAYS LANDING,NJ,08330,39.440626234187526,-74.69216726060247,COUNTY,MAXIMUM,1000.0,OPEN,2022-01-07 15:27:25+00:00,2022-01-07 15:27:25+00:00,Brigantine,NJ,ATLANTIC,39.46487,-74.448738,281.3,118.29565217391306
10006601,COSTELLO PREPARATORY ACADEMY,800 CARRANZA ROAD,TABERNACLE,NJ,08088,39.785950113001455,-74.66502144030333,STATE,JUVENILE,32.0,OPEN,2022-01-07 15:27:25+00:00,2022-01-07 15:27:25+00:00,Brigantine,NJ,ATLANTIC,39.46487,-74.448738,281.3,118.29565217391306
10004015,ATLANTIC YOUTH CENTER - HARBORFIELDS,BUFFALO AVE & DUERER ST (800 BUFFALO AVE),EGG HARBOR CITY,NJ,08215,39.536831876625065,-74.63365357777839,STATE,JUVENILE,27.0,OPEN,2022-01-07 15:27:25+00:00,2022-01-07 15:27:25+00:00,Brigantine,NJ,ATLANTIC,39.46487,-74.448738,281.3,118.29565217391306
10006605,PINELANDS RESIDENTIAL COMMUNITY HOME,3016 ROUTE 563,CHATSWORTH,NJ,08019,39.683355466114996,-74.53047636677498,STATE,JUVENILE,18.0,OPEN,2022-01-07 15:27:25+00:00,2022-01-07 15:27:25+00:00,Brigantine,NJ,ATLANTIC,39.46487,-74.448738,281.3,118.29565217391306
10006606,SOUTHERN TRANSITIONAL,800A BUFFALO AVENUE,EGG HARBOR,NJ,08215,39.53668955094591,-74.6332934996592,STATE,JUVENILE,32.0,OPEN,2022-01-07 15:27:25+00:00,2022-01-07 15:27:25+00:00,Brigantine,NJ,ATLANTIC,39.46487,-74.448738,281.3,118.29565217391306
10003232,MANHATTAN DETENTION COMPLEX,125 WHITE ST,NEW YORK,NY,10013,40.716536681273354,-74.00042187030904,LOCAL,NOT AVAILABLE,881.0,OPEN,2022-01-07 15:27:25+00:00,2022-01-07 15:27:25+00:00,Jersey City FH,NJ,HUDSON,40.725452,-74.052292,219.4,108.76666666666667
10003235,MCC NEW YORK,150 PARK ROW,NEW YORK,NY,10007,40.71320853136698,-74.00156284974214,FEDERAL,MAXIMUM,474.0,OPEN,2022-01-07 15:27:25+00:00,2022-01-07 15:27:25+00:00,Jersey City FH,NJ,HUDSON,40.725452,-74.052292,219.4,108.76666666666667
10003989,ESSEX COUNTY CORRECTIONAL FACILITY,354 DOREMUS AVE,NEWARK,NJ,07105,40.7212163772004,-74.12731035045356,COUNTY,NOT AVAILABLE,2434.0,OPEN,2022-01-07 15:27:25+00:00,2022-01-07 15:27:25+00:00,Jersey City FH,NJ,HUDSON,40.725452,-74.052292,219.4,108.76666666666667
10002297,HUDSON COUNTY CORRECTIONAL CENTER,30 HACKENSACK AVE,KEARNY,NJ,07032,40.72788384754883,-74.10800679334659,COUNTY,NOT AVAILABLE,2080.0,OPEN,2022-01-07 15:27:25+00:00,2022-01-07 15:27:25+00:00,Jersey City FH,NJ,HUDSON,40.725452,-74.052292,219.4,108.76666666666667
10001511,ESSEX COUNTY YOUTH DETENTION CENTER,80 DURYEA ST,NEWARK,NJ,07103,40.74774914225729,-74.18524335991884,COUNTY,JUVENILE,242.0,OPEN,2022-01-07 15:27:25+00:00,2022-01-07 15:27:25+00:00,Jersey City FH,NJ,HUDSON,40.725452,-74.052292,219.4,108.76666666666667
10003988,ESSEX COUNTY-DELANEY HALL DETENTION FACILITY,451 DOREMUS AVE,NEWARK,NJ,07105,40.718072252289204,-74.12868587911129,COUNTY,NOT AVAILABLE,1200.0,OPEN,2022-01-07 15:27:25+00:00,2022-01-07 15:27:25+00:00,Jersey City FH,NJ,HUDSON,40.725452,-74.052292,219.4,108.76666666666667
10003212,SUFFOLK COUNTY JAIL - RIVERHEAD,100 CENTER DR SOUTH,RIVERHEAD,NY,11901,40.91418394827623,-72.67269224424965,COUNTY,NOT AVAILABLE,769.0,OPEN,2022-01-07 15:27:25+00:00,2022-01-07 15:27:25+00:00,Holtsville,NY,SUFFOLK,40.8278,-73.0575,241.8,114.6125
10002291,SUFFOLK COUNTY DWI ALTERNATIVE FACILITY,YAPHANK AVE,YAPHANK,NY,11980,40.81617458263642,-72.92192487534852,COUNTY,NOT AVAILABLE,54.0,OPEN,2022-01-07 15:27:25+00:00,2022-01-07 15:27:25+00:00,Holtsville,NY,SUFFOLK,40.8278,-73.0575,241.8,114.6125
10006618,BRENTWOOD RESIDENTIAL CENTER,1230 COMMACK ROAD,DIX HILLS,NY,11746,40.7888605463361,-73.30335663100584,STATE,JUVENILE,25.0,OPEN,2022-01-07 15:27:25+00:00,2022-01-07 15:27:25+00:00,Holtsville,NY,SUFFOLK,40.8278,-73.0575,241.8,114.6125
10002292,SUFFOLK COUNTY JAIL - YAPHANK,GLOVER DRIVE,YAPHANK,NY,11980,40.81491596893508,-72.92365743509289,COUNTY,MINIMUM,504.0,OPEN,2022-01-07 15:27:25+00:00,2022-01-07 15:27:25+00:00,Holtsville,NY,SUFFOLK,40.8278,-73.0575,241.8,114.6125
10005240,HAMILTON COUNTY JAIL,102 COUNTY VIEW DRIVE,LAKE PLEASANT,NY,12108,43.4702369704019,-74.41235557546514,COUNTY,NOT AVAILABLE,-999.0,OPEN,2022-01-07 15:27:25+00:00,2022-01-07 15:27:25+00:00,Utica,NY,ONEIDA,43.0994,-75.225,255.0,108.75
10003152,MID-STATE CORRECTIONAL FACILITY,9005 OLD RIVER RD,MARCY,NY,13403,43.168787286437336,-75.2971093474107,STATE,MEDIUM,1716.0,OPEN,2022-01-07 15:27:25+00:00,2022-01-07 15:27:25+00:00,Utica,NY,ONEIDA,43.0994,-75.225,255.0,108.75
10003149,MOHAWK CORRECTIONAL FACILITY,6514 ROUTE 26,ROME,NY,13442,43.18104176676694,-75.48185142018518,STATE,MEDIUM,1423.0,OPEN,2022-01-07 15:27:25+00:00,2022-01-07 15:27:25+00:00,Utica,NY,ONEIDA,43.0994,-75.225,255.0,108.75
10000752,TABERG RESIDENTIAL CENTER FOR GIRLS,10011 TABERG FLORENCE RD,TABERG,NY,13471,43.344026579223815,-75.66760039471627,STATE,JUVENILE,24.0,OPEN,2022-01-07 15:27:25+00:00,2022-01-07 15:27:25+00:00,Utica,NY,ONEIDA,43.0994,-75.225,255.0,108.75
10003186,DELAWARE COUNTY CORRECTIONAL FACILITY,280 PHOEBE LANE,DELHI,NY,13753,42.291702934629,-74.9104638922529,COUNTY,NOT AVAILABLE,121.0,OPEN,2022-01-07 15:27:25+00:00,2022-01-07 15:27:25+00:00,Utica,NY,ONEIDA,43.0994,-75.225,255.0,108.75
10000751,MARCY CORRECTIONAL FACILITY,9000 OLD RIVER RD,MARCY,NY,13403,43.163974218566416,-75.31238561221176,STATE,MEDIUM,1218.0,OPEN,2022-01-07 15:27:25+00:00,2022-01-07 15:27:25+00:00,Utica,NY,ONEIDA,43.0994,-75.225,255.0,108.75
10000750,CENTRAL NEW YORK PSYCHIATRIC CENTER,"9005 OLD RIVER RD, PO BOX 300",MARCY,NY,13403,43.1672828565794,-75.30277573164622,STATE,MAXIMUM,220.0,OPEN,2022-01-07 15:27:25+00:00,2022-01-07 15:27:25+00:00,Utica,NY,ONEIDA,43.0994,-75.225,255.0,108.75
10005239,LEWIS COUNTY JAIL,5252 OUTER STOWE STREET,LOWVILLE,NY,13367,43.77835616956445,-75.49943250398586,COUNTY,NOT AVAILABLE,-999.0,OPEN,2022-01-07 15:27:25+00:00,2022-01-07 15:27:25+00:00,Utica,NY,ONEIDA,43.0994,-75.225,255.0,108.75
10003151,ONEIDA COUNTY CORRECTIONAL FACILITY,6075 JUDD RD,ORISKANY,NY,13424,43.156052668418106,-75.37734475960895,COUNTY,MAXIMUM,634.0,OPEN,2022-01-07 15:27:25+00:00,2022-01-07 15:27:25+00:00,Utica,NY,ONEIDA,43.0994,-75.225,255.0,108.75
10003174,OTSEGO COUNTY JAIL,172 COUNTY HWY 33 W,COOPERSTOWN,NY,13326,42.65267329619695,-74.94998620292174,COUNTY,MAXIMUM,100.0,OPEN,2022-01-07 15:27:25+00:00,2022-01-07 15:27:25+00:00,Utica,NY,ONEIDA,43.0994,-75.225,255.0,108.75
10003182,CHENANGO COUNTY JAIL,279 COUNTY ROAD 46,NORWICH,NY,13815,42.507615775422806,-75.53792897054741,COUNTY,NOT AVAILABLE,133.0,OPEN,2022-01-07 15:27:25+00:00,2022-01-07 15:27:25+00:00,Utica,NY,ONEIDA,43.0994,-75.225,255.0,108.75
10005241,HERKIMER COUNTY JAIL,320 NORTH MAIN STREET,HERKIMER,NY,13350,43.02907251734305,-74.98800481595308,COUNTY,NOT AVAILABLE,-999.0,OPEN,2022-01-07 15:27:25+00:00,2022-01-07 15:27:25+00:00,Utica,NY,ONEIDA,43.0994,-75.225,255.0,108.75
10006320,QUEENS DETENTION FACILITY,182-22 150TH AVENUE,JAMAICA,NY,11413,40.65690673921885,-73.76508562828928,FEDERAL,NOT AVAILABLE,222.0,OPEN,2022-01-07 15:27:25+00:00,2022-01-07 15:27:25+00:00,Queens Near-road,NY,QUEENS,40.739264,-73.817694,269.6,130.4375
10001496,ALTONA CORRECTIONAL FACILITY,555 DEVILS DEN RD,ALTONA,NY,12910,44.891321185995146,-73.65994966209213,STATE,MEDIUM,512.0,OPEN,2022-01-07 15:27:25+00:00,2022-01-07 15:27:25+00:00,Saint-Jean-sur-Richelieu - L'Acadie,CC,QUEBEC,45.29417,-73.3489,24.8,6.9875
10003140,WASHINGTON CORRECTIONAL FACILITY,72 LOCK 11 LANE,COMSTOCK,NY,12821,43.468448610631675,-73.42953475137648,STATE,MEDIUM,924.0,OPEN,2022-01-07 15:27:25+00:00,2022-01-07 15:27:25+00:00,Rutland,VT,RUTLAND,43.608528,-72.98246,38.0,20.391304347826086
10003141,GREAT MEADOW CORRECTIONAL FACILITY,11739 STATE ROUTE 22,COMSTOCK,NY,12821,43.45758749127171,-73.4329987389379,STATE,MAXIMUM,-999.0,OPEN,2022-01-07 15:27:25+00:00,2022-01-07 15:27:25+00:00,Rutland,VT,RUTLAND,43.608528,-72.98246,38.0,20.391304347826086
10003142,WARREN COUNTY CORRECTIONAL FACILITY,1400 STATE ROUTE 9,LAKE GEORGE,NY,12845,43.36205086748422,-73.69862340726513,COUNTY,NOT AVAILABLE,186.0,OPEN,2022-01-07 15:27:25+00:00,2022-01-07 15:27:25+00:00,Rutland,VT,RUTLAND,43.608528,-72.98246,38.0,20.391304347826086
10003131,BARE HILL CORRECTIONAL FACILITY,181 BRAND RD,MALONE,NY,12953,44.880364111833394,-74.32415648551085,STATE,MEDIUM,1714.0,OPEN,2022-01-07 15:27:25+00:00,2022-01-07 15:27:25+00:00,Saint-Anicet,CC,QUEBEC,45.1167,-74.2833,127.7,41.599999999999994
10003132,FRANKLIN CORRECTIONAL FACILITY,62 BARE HILL RD,MALONE,NY,12953,44.868927484162874,-74.31343709131355,STATE,MEDIUM,1730.0,OPEN,2022-01-07 15:27:25+00:00,2022-01-07 15:27:25+00:00,Saint-Anicet,CC,QUEBEC,45.1167,-74.2833,127.7,41.599999999999994
10003130,UPSTATE CORRECTIONAL FACILITY,309 BARE HILL RD,MALONE,NY,12953,44.88671940067999,-74.32479273874529,STATE,MAXIMUM,1500.0,OPEN,2022-01-07 15:27:25+00:00,2022-01-07 15:27:25+00:00,Saint-Anicet,CC,QUEBEC,45.1167,-74.2833,127.7,41.599999999999994
10005788,FRANKLIN COUNTY JAIL / SHERIFF,45 BARE HILL ROAD,MALONE,NY,12953,44.86892032558469,-74.31914274932689,COUNTY,NOT AVAILABLE,-999.0,OPEN,2022-01-07 15:27:25+00:00,2022-01-07 15:27:25+00:00,Saint-Anicet,CC,QUEBEC,45.1167,-74.2833,127.7,41.599999999999994
10005816,SAINT JOHNS - RICHMOND HILL DETENTION CENTER,130-20 107TH AVENUE,RICHMOND HILL,NY,11419,40.6869684804847,-73.81341494941792,LOCAL,JUVENILE,12.0,OPEN,2022-01-07 15:27:25+00:00,2022-01-07 15:27:25+00:00,Queens,NY,QUEENS,40.7375,-73.8244,412.0,200.35833333333335
10005814,QUEENS DETENTION COMPLEX,126-01 82ND AVENUE,KEW GARDENS,NY,11415,40.71299119783325,-73.82548562524305,LOCAL,NOT AVAILABLE,-999.0,OPEN,2022-01-07 15:27:25+00:00,2022-01-07 15:27:25+00:00,Queens,NY,QUEENS,40.7375,-73.8244,412.0,200.35833333333335
10005235,LANCASTER COUNTY YOUTH INTERVENTION CENTER,235 CIRCLE AVE,LANCASTER,PA,17602,40.033140081753594,-76.28354251270932,COUNTY,JUVENILE,96.0,OPEN,2022-01-07 15:27:25+00:00,2022-01-07 15:27:25+00:00,Lancaster,PA,LANCASTER,40.0467,-76.2833,316.8,142.38333333333333
10000734,LANCASTER COUNTY PRISON,625 EAST KING ST,LANCASTER,PA,17602,40.04038283505179,-76.29242338747305,COUNTY,NOT AVAILABLE,1102.0,OPEN,2022-01-07 15:27:25+00:00,2022-01-07 15:27:25+00:00,Lancaster,PA,LANCASTER,40.0467,-76.2833,316.8,142.38333333333333
10004011,OCEAN COUNTY JAIL,114 HOOPER AVE,TOMS RIVER,NJ,08754,39.95381751154892,-74.19490270823385,COUNTY,MAXIMUM,700.0,OPEN,2022-01-07 15:27:25+00:00,2022-01-07 15:27:25+00:00,Toms River,NJ,OCEAN,39.994908,-74.170447,338.0,186.38888888888889
10004010,OCEAN COUNTY JUVENILE DETENTION CENTER,165 SUNSET AVE,TOMS RIVER,NJ,08754,40.00633244957562,-74.22426199818806,COUNTY,JUVENILE,30.0,OPEN,2022-01-07 15:27:25+00:00,2022-01-07 15:27:25+00:00,Toms River,NJ,OCEAN,39.994908,-74.170447,338.0,186.38888888888889
10006604,OCEAN RESIDENTIAL COMMUNITY HOME,1 GAME FARM ROAD,FORKED RIVER,NJ,08731,39.84062552703723,-74.18446070233816,STATE,JUVENILE,18.0,OPEN,2022-01-07 15:27:25+00:00,2022-01-07 15:27:25+00:00,Toms River,NJ,OCEAN,39.994908,-74.170447,338.0,186.38888888888889
10006380,RIVERSIDE CCC,3001 BEAVER AVENUE,PITTSBURGH,PA,15233,40.469770923784345,-80.04016540821972,STATE,MINIMUM,-999.0,OPEN,2022-01-07 15:27:25+00:00,2022-01-07 15:27:25+00:00,Avalon,PA,ALLEGHENY,40.499789,-80.071347,56.0,31.86666666666667
10001490,LAWRENCE COUNTY JAIL,111 S MILTON ST,NEW CASTLE,PA,16101,40.99982004571969,-80.33741500524543,COUNTY,NOT AVAILABLE,282.0,OPEN,2022-01-07 15:27:25+00:00,2022-01-07 15:27:25+00:00,Farrell,PA,MERCER,41.215,-80.485,30.5,21.337500000000002
10003053,VENANGO COUNTY PRISON,1186 ELK ST,FRANKLIN,PA,16323,41.39836427684051,-79.82612717311474,COUNTY,NOT AVAILABLE,174.0,OPEN,2022-01-07 15:27:25+00:00,2022-01-07 15:27:25+00:00,Farrell,PA,MERCER,41.215,-80.485,30.5,21.337500000000002
10003057,MERCER COUNTY JAIL,55 THOMPSON RD,MERCER,PA,16137,41.20201462646706,-80.2163192358369,COUNTY,NOT AVAILABLE,310.0,OPEN,2022-01-07 15:27:25+00:00,2022-01-07 15:27:25+00:00,Farrell,PA,MERCER,41.215,-80.485,30.5,21.337500000000002
10003056,SCI MERCER,801 BUTLER PIKE,MERCER,PA,16137,41.20134122735958,-80.22434808073801,STATE,MINIMUM,1494.0,OPEN,2022-01-07 15:27:25+00:00,2022-01-07 15:27:25+00:00,Farrell,PA,MERCER,41.215,-80.485,30.5,21.337500000000002
10000723,UNION COUNTY JAIL,103 SOUTH 2ND ST,LEWISBURG,PA,17837,40.96339890077475,-76.88250612619534,COUNTY,NOT AVAILABLE,37.0,OPEN,2022-01-07 15:27:25+00:00,2022-01-07 15:27:25+00:00,Harrisburg,PA,DAUPHIN,40.246992,-76.846988,359.8,147.7541666666667
10006374,HARRISBURG CCC,27 NORTH CAMERON STREET,HARRISBURG,PA,17101,40.265680756196275,-76.87464228412233,STATE,MINIMUM,-999.0,OPEN,2022-01-07 15:27:25+00:00,2022-01-07 15:27:25+00:00,Harrisburg,PA,DAUPHIN,40.246992,-76.846988,359.8,147.7541666666667
10003094,DAUPHIN COUNTY PRISON,501 MALL RD,HARRISBURG,PA,17111,40.253094542302456,-76.83547732880977,COUNTY,NOT AVAILABLE,1322.0,OPEN,2022-01-07 15:27:25+00:00,2022-01-07 15:27:25+00:00,Harrisburg,PA,DAUPHIN,40.246992,-76.846988,359.8,147.7541666666667
10003095,DAUPHIN COUNTY WORK RELEASE CENTER,919 GIBSON BLVD,STEELTON,PA,17113,40.25078327347887,-76.84233851525057,COUNTY,MINIMUM,-999.0,OPEN,2022-01-07 15:27:25+00:00,2022-01-07 15:27:25+00:00,Harrisburg,PA,DAUPHIN,40.246992,-76.846988,359.8,147.7541666666667
10003096,HERBERT SCHAFFNER YOUTH CENTER,911 GIBSON BLVD,STEELTON,PA,17113,40.25050639883093,-76.84418620566862,COUNTY,JUVENILE,24.0,OPEN,2022-01-07 15:27:25+00:00,2022-01-07 15:27:25+00:00,Harrisburg,PA,DAUPHIN,40.246992,-76.846988,359.8,147.7541666666667
10003069,USP LEWISBURG,2400 ROBERT F. MILLER DR,LEWISBURG,PA,17837,40.98796603113237,-76.91496220206933,FEDERAL,MAXIMUM,931.0,OPEN,2022-01-07 15:27:25+00:00,2022-01-07 15:27:25+00:00,Harrisburg,PA,DAUPHIN,40.246992,-76.846988,359.8,147.7541666666667
10003070,USP LEWISBURG CAMP,2400 ROBERT F. MILLER DR,LEWISBURG,PA,17837,40.985831088693935,-76.91129737270526,FEDERAL,MINIMUM,552.0,OPEN,2022-01-07 15:27:25+00:00,2022-01-07 15:27:25+00:00,Harrisburg,PA,DAUPHIN,40.246992,-76.846988,359.8,147.7541666666667
10003078,SNYDER COUNTY PRISON,600 OLD COLONY RD,SELINSGROVE,PA,17870,40.82357635647048,-76.89044230274921,COUNTY,NOT AVAILABLE,138.0,OPEN,2022-01-07 15:27:25+00:00,2022-01-07 15:27:25+00:00,Harrisburg,PA,DAUPHIN,40.246992,-76.846988,359.8,147.7541666666667
10000733,SCI CAMP HILL,2500 LISBURN RD.,CAMP HILL,PA,17001,40.217966863516466,-76.92738170287988,STATE,NOT AVAILABLE,3272.0,OPEN,2022-01-07 15:27:25+00:00,2022-01-07 15:27:25+00:00,Harrisburg,PA,DAUPHIN,40.246992,-76.846988,359.8,147.7541666666667
10000737,SCI SOMERSET,1590 WALTERS MILL RD,SOMERSET,PA,15510,39.964589659202915,-79.0391841429113,STATE,MEDIUM,2203.0,OPEN,2022-01-07 15:27:25+00:00,2022-01-07 15:27:25+00:00,Piney Run,MD,GARRETT,39.705799,-79.011902,42.0,25.0
10003108,SOMERSET COUNTY PRISON,127 E FAIRVIEW ST,SOMERSET,PA,15501,40.010473951068136,-79.07762566130995,COUNTY,NOT AVAILABLE,142.0,OPEN,2022-01-07 15:27:25+00:00,2022-01-07 15:27:25+00:00,Piney Run,MD,GARRETT,39.705799,-79.011902,42.0,25.0
10003107,SCI LAUREL HIGHLANDS,5706 GLADES PIKE,SOMERSET,PA,15501,40.004575295887626,-79.0398997658123,STATE,MEDIUM,1571.0,OPEN,2022-01-07 15:27:25+00:00,2022-01-07 15:27:25+00:00,Piney Run,MD,GARRETT,39.705799,-79.011902,42.0,25.0
10005826,MORRIS COUNTY JUVENILE DETENTION CENTER,460 WEST HANOVER AVE,MORRISTOWN,NJ,07960,40.832032276390784,-74.51999686500345,COUNTY,JUVENILE,42.0,OPEN,2022-01-07 15:27:25+00:00,2022-01-07 15:27:25+00:00,Paterson,NJ,PASSAIC,40.918381,-74.168092,223.9,121.5
10003984,PASSAIC COUNTY JAIL,11 MARSHALL ST,PATERSON,NJ,07501,40.91267993762424,-74.17384787268573,COUNTY,MAXIMUM,1242.0,OPEN,2022-01-07 15:27:25+00:00,2022-01-07 15:27:25+00:00,Paterson,NJ,PASSAIC,40.918381,-74.168092,223.9,121.5
10002306,CAMDEN COUNTY CORRECTIONAL FACILITY,330 FEDERAL ST,CAMDEN,NJ,08101,39.94355355228193,-75.12342667525111,COUNTY,NOT AVAILABLE,1273.0,OPEN,2022-01-07 15:27:25+00:00,2022-01-07 15:27:25+00:00,Camden Spruce St,NJ,CAMDEN,39.934446,-75.125291,332.8,130.83913043478262
10002307,CAMDEN COUNTY YOUTH CENTER,8 S WOODBURY TURNERSVILLE RD,BLACKWOOD,NJ,08012,39.78408865512963,-75.06688021184345,COUNTY,JUVENILE,77.0,OPEN,2022-01-07 15:27:25+00:00,2022-01-07 15:27:25+00:00,Camden Spruce St,NJ,CAMDEN,39.934446,-75.125291,332.8,130.83913043478262
10002308,SALEM COUNTY CORRECTIONAL FACILITY,125 CEMETERY RD,WOODSTOWN,NJ,08098,39.62988106135217,-75.35721533554168,COUNTY,MAXIMUM,464.0,OPEN,2022-01-07 15:27:25+00:00,2022-01-07 15:27:25+00:00,RIVER ROAD PARK; BELLEFONTE,DE,NEW CASTLE,39.7611,-75.4919,428.1,193.0
10006832,BERGEN COUNTY JUVENILE DETENTION CENTER,200 NORTH STREET,TETERBORO,NJ,07608,40.86462606020094,-74.05384707427353,COUNTY,NOT AVAILABLE,-999.0,OPEN,2022-01-07 15:27:25+00:00,2022-01-07 15:27:25+00:00,Fort Lee Near Road,NJ,BERGEN,40.85355,-73.9661,229.5,119.24782608695651
10001510,BERGEN COUNTY JAIL,160 S RIVER ST,HACKENSACK,NJ,07601,40.873794722315544,-74.03872980416945,COUNTY,MAXIMUM,1150.0,OPEN,2022-01-07 15:27:25+00:00,2022-01-07 15:27:25+00:00,Fort Lee Near Road,NJ,BERGEN,40.85355,-73.9661,229.5,119.24782608695651
10001509,STATEN ISLAND RESIDENTIAL CENTER,1133 FOREST HILL RD,STATEN ISLAND,NY,10314,40.59352092414405,-74.14308654216212,LOCAL,JUVENILE,25.0,OPEN,2022-01-07 15:27:25+00:00,2022-01-07 15:27:25+00:00,Port Richmond,NY,RICHMOND,40.63306,-74.137156,249.8,113.24166666666667
10005807,LEADERSHIP TRAINING INSTITUTE - PROJECT 29,29 RICHARDSON PLACE,HEMPSTEAD,NY,11550,40.7066101175772,-73.61738758027701,LOCAL,JUVENILE,12.0,OPEN,2022-01-07 15:27:25+00:00,2022-01-07 15:27:25+00:00,Eisenhower Park,NY,NASSAU,40.7447,-73.5869,94.7,62.34545454545455
10003213,NASSAU COUNTY MERCYFIRST-WHISTON HALL NSD,525 CONVENT RD,SYOSSET,NY,11791,40.82183789778738,-73.48739138511054,STATE,JUVENILE,-999.0,OPEN,2022-01-07 15:27:25+00:00,2022-01-07 15:27:25+00:00,Eisenhower Park,NY,NASSAU,40.7447,-73.5869,94.7,62.34545454545455
10003214,NASSAU COUNTY CORRECTIONAL CENTER,100 CARMAN AVE,EAST MEADOW,NY,11554,40.73361605722869,-73.55288104451873,COUNTY,NOT AVAILABLE,-999.0,OPEN,2022-01-07 15:27:25+00:00,2022-01-07 15:27:25+00:00,Eisenhower Park,NY,NASSAU,40.7447,-73.5869,94.7,62.34545454545455
10003215,NASSAU COUNTY JUVENILE DETENTION CENTER,61 CARMAN AVE,WESTBURY,NY,11590,40.75440054869162,-73.55463080214021,COUNTY,JUVENILE,32.0,OPEN,2022-01-07 15:27:25+00:00,2022-01-07 15:27:25+00:00,Eisenhower Park,NY,NASSAU,40.7447,-73.5869,94.7,62.34545454545455
10006837,HOPE FOR YOUTH NON SECURE DETENTION CENTER,201 DIXON AVENUE,AMITYVILLE,NY,11701,40.68315960009747,-73.41032099875463,STATE,JUVENILE,12.0,OPEN,2022-01-07 15:27:25+00:00,2022-01-07 15:27:25+00:00,Eisenhower Park,NY,NASSAU,40.7447,-73.5869,94.7,62.34545454545455
10005808,LEADERSHIP TRAINING INSTITUTE - PROJECT 350,350 GREENWICH STREET,HEMPSTEAD,NY,11550,40.6986355884785,-73.61286351693802,LOCAL,JUVENILE,8.0,OPEN,2022-01-07 15:27:25+00:00,2022-01-07 15:27:25+00:00,Eisenhower Park,NY,NASSAU,40.7447,-73.5869,94.7,62.34545454545455
10002295,BROOKLYN DETENTION COMPLEX,275 ATLANTIC AVE,BROOKLYN,NY,11201,40.689176583543905,-73.98966516052627,LOCAL,MAXIMUM,815.0,OPEN,2022-01-07 15:27:25+00:00,2022-01-07 15:27:25+00:00,Bklyn - PS274,NY,KINGS,40.694401,-73.928596,362.6,170.39583333333334
10003230,CROSSROADS JUVENILE CENTER,17 BRISTOL ST,BROOKLYN,NY,11212,40.67065495784265,-73.91241313897021,LOCAL,JUVENILE,-999.0,OPEN,2022-01-07 15:27:25+00:00,2022-01-07 15:27:25+00:00,Bklyn - PS274,NY,KINGS,40.694401,-73.928596,362.6,170.39583333333334
10006620,ELLA MCQUEEN RECEPTION CENTER FOR BOYS AND GIRLS,41 HOWARD AVENUE,BROOKLYN,NY,11221,40.68704125354735,-73.92056523069687,STATE,JUVENILE,33.0,OPEN,2022-01-07 15:27:25+00:00,2022-01-07 15:27:25+00:00,Bklyn - PS274,NY,KINGS,40.694401,-73.928596,362.6,170.39583333333334
10002294,BROOKLYN COMMUNITY CORRECTIONAL CENTER,988 MYRTLE AVE,BROOKLYN,NY,11206,40.69602395327428,-73.94177914977688,STATE,MINIMUM,-999.0,OPEN,2022-01-07 15:27:25+00:00,2022-01-07 15:27:25+00:00,Bklyn - PS274,NY,KINGS,40.694401,-73.928596,362.6,170.39583333333334
10005821,CATHOLIC GUARDIAN SOCIETY,3402 CLARENDON ROAD,BROOKLYN,NY,11203,40.643239379643916,-73.94471634553963,LOCAL,NOT AVAILABLE,-999.0,OPEN,2022-01-07 15:27:25+00:00,2022-01-07 15:27:25+00:00,Bklyn - PS274,NY,KINGS,40.694401,-73.928596,362.6,170.39583333333334
10001507,BRONX COMMUNITY RE-ENTRY CENTER,2534 CRESTON AVE,BRONX,NY,10468,40.86355326330427,-73.89728872407072,FEDERAL,MINIMUM,196.0,OPEN,2022-01-07 15:27:25+00:00,2022-01-07 15:27:25+00:00,Manhattan/IS143,NY,NEW YORK,40.8492,-73.9319,257.1,126.8608695652174
10003229,MDC BROOKLYN,80 29TH ST,BROOKLYN,NY,11232,40.65990922976303,-74.00381848006515,FEDERAL,MAXIMUM,1878.0,OPEN,2022-01-07 15:27:25+00:00,2022-01-07 15:27:25+00:00,Bklyn - PS 314,NY,KINGS,40.641819,-74.018707,383.8,170.21904761904764
10006603,GREEN RESIDENTIAL COMMUNITY HOME,1311 SLOATSBURG RD,RINGWOOD,NJ,07456,41.13374053197191,-74.26018007833817,STATE,JUVENILE,28.0,OPEN,2022-01-07 15:27:25+00:00,2022-01-07 15:27:25+00:00,Rockland Cty,NY,ROCKLAND,41.182079,-74.028191,196.4,119.28750000000001
10003211,ROCKLAND COUNTY CORRECTIONAL CENTER,51 NEW HEMPSTEAD RD,NEW CITY,NY,10956,41.14656193575475,-73.99353024272455,COUNTY,NOT AVAILABLE,-999.0,OPEN,2022-01-07 15:27:25+00:00,2022-01-07 15:27:25+00:00,Rockland Cty,NY,ROCKLAND,41.182079,-74.028191,196.4,119.28750000000001
